School name,Ofsted region,Region,Local authority,Parliamentary constituency,Postcode,Latitude,Longitude
Sir John Cass's Foundation Primary School,London,London,City of London,Cities of London and Westminster,EC3A 5DE,51.51366,-0.07748
Thomas Coram Centre,London,London,Camden,Holborn and St Pancras,WC1N 2NY,51.52547,-0.12078
CCfL Key Stage 4 PRU,London,London,Camden,Holborn and St Pancras,NW3 2NY,51.55417,-0.16078
Camden Primary Pupil Referral Unit,London,London,Camden,Holborn and St Pancras,NW1 3EX,51.52771,-0.14061
Argyle Primary School,London,London,Camden,Holborn and St Pancras,WC1H 9EG,51.52875,-0.12403
Beckford Primary School,London,London,Camden,Hampstead and Kilburn,NW6 1QL,51.55075,-0.19948
Brecknock Primary School,London,London,Camden,Holborn and St Pancras,NW1 9AL,51.54748,-0.12787
Brookfield Primary School,London,London,Camden,Holborn and St Pancras,N19 5DH,51.56339,-0.14506
Carlton Primary School,London,London,Camden,Holborn and St Pancras,NW5 4AX,51.55159,-0.15001
Edith Neville Primary School,London,London,Camden,Holborn and St Pancras,NW1 1DN,51.53276,-0.13113
Fleet Primary School,London,London,Camden,Holborn and St Pancras,NW3 2QT,51.55346,-0.16094
Hawley Primary School,London,London,Camden,Holborn and St Pancras,NW1 8RP,51.54271,-0.14382
Netley Primary School & Centre for Autism,London,London,Camden,Holborn and St Pancras,NW1 3EX,51.52771,-0.14061
New End Primary School,London,London,Camden,Hampstead and Kilburn,NW3 1HU,51.55813,-0.17653
Primrose Hill School,London,London,Camden,Holborn and St Pancras,NW1 8JL,51.53917,-0.1518
Rhyl Primary School,London,London,Camden,Holborn and St Pancras,NW5 3HB,51.54771,-0.15058
Richard Cobden Primary School,London,London,Camden,Holborn and St Pancras,NW1 0LL,51.53587,-0.13617
Torriano Primary School,London,London,Camden,Holborn and St Pancras,NW5 2SJ,51.54967,-0.13284
Gospel Oak Primary School,London,London,Camden,Holborn and St Pancras,NW3 2JB,51.55462,-0.15296
Fitzjohn's Primary School,London,London,Camden,Hampstead and Kilburn,NW3 6NP,51.55339,-0.17586
Eleanor Palmer Primary School,London,London,Camden,Holborn and St Pancras,NW5 2JA,51.55436,-0.13909
"Christ Church Primary School, Hampstead",London,London,Camden,Hampstead and Kilburn,NW3 1JH,51.55925,-0.17662
Christ Church School,London,London,Camden,Holborn and St Pancras,NW1 4BD,51.53077,-0.14434
Emmanuel Church of England Primary School,London,London,Camden,Hampstead and Kilburn,NW6 1TF,51.55183,-0.19454
Hampstead Parochial Church of England Primary School,London,London,Camden,Hampstead and Kilburn,NW3 6TX,51.55644,-0.17902
"Holy Trinity CofE Primary School, NW3",London,London,Camden,Hampstead and Kilburn,NW3 5SQ,51.54625,-0.17815
"Holy Trinity and Saint Silas CofE Primary School, NW1",London,London,Camden,Holborn and St Pancras,NW1 8DE,51.54454,-0.14522
Kentish Town Church of England Primary School,London,London,Camden,Holborn and St Pancras,NW5 2TU,51.54972,-0.13927
Rosary Roman Catholic Primary School,London,London,Camden,Hampstead and Kilburn,NW3 2AE,51.55161,-0.16608
St Alban's Church of England Primary School,London,London,Camden,Holborn and St Pancras,EC1N 7SD,51.52017,-0.11117
St Aloysius Catholic Primary School,London,London,Camden,Holborn and St Pancras,NW1 1PS,51.53162,-0.13435
St Dominic's Catholic Primary School,London,London,Camden,Holborn and St Pancras,NW5 4JS,51.55168,-0.15752
St George the Martyr Church of England Primary School,London,London,Camden,Holborn and St Pancras,WC1N 2NX,51.52199,-0.11625
St Josephs Catholic Primary School,London,London,Camden,Holborn and St Pancras,WC2B 5NA,51.51618,-0.12185
St Mary's Kilburn Church of England Primary School,London,London,Camden,Hampstead and Kilburn,NW6 4PG,51.54036,-0.19335
St Mary and St Pancras Church of England Primary School,London,London,Camden,Holborn and St Pancras,NW1 1QP,51.53237,-0.13444
St Michael's Church of England Primary School,London,London,Camden,Holborn and St Pancras,NW1 0JA,51.53909,-0.13839
St Patrick's Catholic Primary School,London,London,Camden,Holborn and St Pancras,NW5 3AH,51.5492,-0.14281
St Paul's Church of England Primary School,London,London,Camden,Hampstead and Kilburn,NW3 3DS,51.54138,-0.16373
St Eugene de Mazenod Roman Catholic Primary School,London,London,Camden,Hampstead and Kilburn,NW6 4LS,51.54115,-0.1938
Our Lady Roman Catholic Primary School,London,London,Camden,Holborn and St Pancras,NW1 0DP,51.53886,-0.13745
Haverstock School,London,London,Camden,Holborn and St Pancras,NW3 2BQ,51.54479,-0.15399
Parliament Hill School,London,London,Camden,Holborn and St Pancras,NW5 1RL,51.55844,-0.14964
Regent High School,London,London,Camden,Holborn and St Pancras,NW1 1RX,51.53278,-0.13294
Hampstead School,London,London,Camden,Hampstead and Kilburn,NW2 3RT,51.55561,-0.20704
Acland Burghley School,London,London,Camden,Holborn and St Pancras,NW5 1UJ,51.55741,-0.13962
The Camden School for Girls,London,London,Camden,Holborn and St Pancras,NW5 2DB,51.54598,-0.13469
Maria Fidelis Catholic School FCJ,London,London,Camden,Holborn and St Pancras,NW1 1LY,51.52978,-0.13325
William Ellis School,London,London,Camden,Holborn and St Pancras,NW5 1RN,51.5587,-0.15026
La Sainte Union Catholic Secondary School,London,London,Camden,Holborn and St Pancras,NW5 1RP,51.55999,-0.14944
Children's Hospital School at Gt Ormond Street and UCH,London,London,Camden,Holborn and St Pancras,WC1N 3JH,51.52221,-0.11992
Frank Barnes School for Deaf Children ,London,London,Camden,Holborn and St Pancras,N1C 4BT,51.53745,-0.12705
Camden Centre for Learning (CCfL) Special School,London,London,Camden,Holborn and St Pancras,NW1 8DP,51.54443,-0.14704
Royal Free Hospital Children's School,London,London,Camden,Hampstead and Kilburn,NW3 2QG,51.55322,-0.16532
Swiss Cottage School - Development & Research Centre,London,London,Camden,Hampstead and Kilburn,NW8 6HX,51.5409,-0.17134
Rachel McMillan Nursery School and Children's Centre,London,London,Greenwich,Greenwich and Woolwich,SE8 3EH,51.48134,-0.02325
Pound Park Nursery School,London,London,Greenwich,Greenwich and Woolwich,SE7 8AF,51.48811,0.04033
Abbey Wood Nursery School,London,London,Greenwich,Erith and Thamesmead,SE2 0SX,51.48617,0.11241
Robert Owen Nursery School,London,London,Greenwich,Greenwich and Woolwich,SE10 0EA,51.48712,0.00609
Newhaven Pupil Referral Unit,London,London,Greenwich,Eltham,SE9 6HR,51.46079,0.03835
Bannockburn Primary School,London,London,Greenwich,Erith and Thamesmead,SE18 1HE,51.4868,0.09603
Morden Mount Primary School,London,London,Greenwich,Greenwich and Woolwich,SE13 7QP,51.47015,-0.01442
Cherry Orchard Primary School,London,London,Greenwich,Greenwich and Woolwich,SE7 7DG,51.47582,0.03366
Ealdham Primary School,London,London,Greenwich,Eltham,SE9 6BP,51.45673,0.03527
Fossdene Primary School,London,London,Greenwich,Greenwich and Woolwich,SE7 7NQ,51.48389,0.02689
Gallions Mount Primary School,London,London,Greenwich,Erith and Thamesmead,SE18 1JR,51.48395,0.09812
Gordon Primary School,London,London,Greenwich,Eltham,SE9 1QG,51.45861,0.05293
Haimo Primary School,London,London,Greenwich,Eltham,SE9 6DY,51.45539,0.04163
Henwick Primary School,London,London,Greenwich,Eltham,SE9 6NZ,51.46278,0.04258
Invicta Primary School,London,London,Greenwich,Greenwich and Woolwich,SE3 7HE,51.47897,0.02056
Kidbrooke Park Primary School,London,London,Greenwich,Eltham,SE3 8HS,51.47002,0.03218
Meridian Primary School,London,London,Greenwich,Greenwich and Woolwich,SE10 9NY,51.48421,-0.00051
Plumcroft Primary School,London,London,Greenwich,Eltham,SE18 3HW,51.47701,0.07396
Sherington Primary School,London,London,Greenwich,Greenwich and Woolwich,SE7 7JP,51.48009,0.02568
Thorntree Primary School,London,London,Greenwich,Greenwich and Woolwich,SE7 8AE,51.4875,0.04161
Wyborne Primary School,London,London,Greenwich,Eltham,SE9 2EH,51.43985,0.07035
Montbelle Primary School,London,London,Greenwich,Eltham,SE9 3EY,51.42754,0.06182
Boxgrove Primary School,London,London,Greenwich,Erith and Thamesmead,SE2 9JP,51.49326,0.11644
De Lucy Primary School,London,London,Greenwich,Erith and Thamesmead,SE2 9PD,51.49547,0.10998
Wingfield Primary School,London,London,Greenwich,Eltham,SE3 9GJ,51.4612,0.02245
Cardwell Primary School,London,London,Greenwich,Greenwich and Woolwich,SE18 5LP,51.49074,0.05348
Heronsgate Primary School,London,London,Greenwich,Greenwich and Woolwich,SE28 0EA,51.49405,0.08275
Linton Mead Primary School,London,London,Greenwich,Erith and Thamesmead,SE28 8DT,51.50801,0.11324
Greenslade Primary School,London,London,Greenwich,Eltham,SE18 2QQ,51.47903,0.08555
Mulgrave Primary School,London,London,Greenwich,Greenwich and Woolwich,SE18 5DL,51.48855,0.06074
Charlton Manor Primary School,London,London,Greenwich,Eltham,SE7 7EF,51.47763,0.03678
Christ Church Church of England Primary School,London,London,Greenwich,Greenwich and Woolwich,SE10 0DZ,51.48743,0.007
"Christ Church Church of England Primary School, Shooters Hill",London,London,Greenwich,Eltham,SE18 3RS,51.46983,0.06087
Eltham Church of England Primary School,London,London,Greenwich,Eltham,SE9 1TR,51.45131,0.05689
Our Lady of Grace Catholic Primary School,London,London,Greenwich,Greenwich and Woolwich,SE7 7HR,51.48143,0.02838
St Joseph's Catholic Primary School,London,London,Greenwich,Greenwich and Woolwich,SE10 9AN,51.48629,0.00573
St Margaret's Church of England Primary School,London,London,Greenwich,Greenwich and Woolwich,SE18 7RL,51.48241,0.07438
Saint Mary Magdalene Church of England All Through School,London,London,Greenwich,Greenwich and Woolwich,SE18 5PW,51.49137,0.06107
St Patrick's Catholic Primary School,London,London,Greenwich,Greenwich and Woolwich,SE18 7QG,51.48847,0.08539
St Alfege with St Peter's Church of England Primary School,London,London,Greenwich,Greenwich and Woolwich,SE10 9RB,51.48172,-0.01255
St Peter's Catholic Primary School,London,London,Greenwich,Greenwich and Woolwich,SE18 7BN,51.48661,0.06882
St Thomas More Catholic Primary School,London,London,Greenwich,Eltham,SE9 6NS,51.46258,0.04489
St Thomas A Becket Roman Catholic Primary School,London,London,Greenwich,Erith and Thamesmead,SE2 9LY,51.49156,0.1042
Holy Family Catholic Primary School,London,London,Greenwich,Eltham,SE3 9YX,51.45994,0.03039
Notre Dame Catholic Primary School,London,London,Greenwich,Greenwich and Woolwich,SE18 3SJ,51.48027,0.06592
St Margaret Clitherow Catholic Primary School,London,London,Greenwich,Erith and Thamesmead,SE28 8GB,51.50096,0.11333
Bishop John Robinson Church of England Primary School,London,London,Greenwich,Erith and Thamesmead,SE28 8LW,51.50897,0.11788
Eltham Hill School,London,London,Greenwich,Eltham,SE9 5EE,51.45091,0.04578
Plumstead Manor School,London,London,Greenwich,Greenwich and Woolwich,SE18 1QF,51.4819,0.08461
Thomas Tallis School,London,London,Greenwich,Eltham,SE3 9PX,51.46608,0.02627
The John Roan School,London,London,Greenwich,Greenwich and Woolwich,SE3 7QR,51.47869,0.00929
St Ursula's Convent School,London,London,Greenwich,Greenwich and Woolwich,SE10 8HN,51.47578,-0.00581
Hawksmoor School,London,London,Greenwich,Erith and Thamesmead,SE28 8AS,51.50529,0.1118
King's Oak School,London,London,Greenwich,Eltham,SE9 5LX,51.44923,0.03691
Wentworth Nursery School and Children's Centre,London,London,Hackney,Hackney South and Shoreditch,E9 5BY,51.54325,-0.04142
Comet Nursery School and Children's Centre,London,London,Hackney,Hackney South and Shoreditch,N1 5RF,51.5359,-0.08071
Berger Primary School,London,London,Hackney,Hackney South and Shoreditch,E9 6HB,51.54649,-0.04513
Colvestone Primary School,London,London,Hackney,Hackney North and Stoke Newington,E8 2LG,51.54912,-0.07254
Daubeney Primary School,London,London,Hackney,Hackney South and Shoreditch,E5 0EG,51.55235,-0.03787
De Beauvoir Primary School,London,London,Hackney,Hackney South and Shoreditch,N1 4BS,51.54571,-0.07971
Gainsborough Primary School,London,London,Hackney,Hackney South and Shoreditch,E9 5ND,51.54615,-0.02549
Lauriston School,London,London,Hackney,Hackney South and Shoreditch,E9 7JS,51.53687,-0.04687
London Fields Primary School,London,London,Hackney,Hackney South and Shoreditch,E8 3RL,51.5375,-0.05903
Millfields Community School,London,London,Hackney,Hackney North and Stoke Newington,E5 0SH,51.55586,-0.05096
Morningside Primary School,London,London,Hackney,Hackney South and Shoreditch,E9 6LL,51.5465,-0.05025
Orchard Primary School,London,London,Hackney,Hackney South and Shoreditch,E9 7BB,51.54084,-0.04905
Queensbridge Primary School,London,London,Hackney,Hackney South and Shoreditch,E8 4ET,51.53928,-0.07174
Randal Cremer Primary School,London,London,Hackney,Hackney South and Shoreditch,E2 8JG,51.53337,-0.07485
Princess May Primary School,London,London,Hackney,Hackney North and Stoke Newington,N16 8DF,51.55277,-0.07743
Sebright School,London,London,Hackney,Hackney South and Shoreditch,E2 8QH,51.53336,-0.06548
Shacklewell Primary School,London,London,Hackney,Hackney North and Stoke Newington,E8 2EA,51.55282,-0.07152
Southwold Primary School,London,London,Hackney,Hackney North and Stoke Newington,E5 9NL,51.56343,-0.05363
Thomas Fairchild Community School,London,London,Hackney,Hackney South and Shoreditch,N1 7HA,51.53347,-0.0917
Tyssen Community Primary School,London,London,Hackney,Hackney North and Stoke Newington,N16 6LR,51.56857,-0.06636
Shoreditch Park Primary School,London,London,Hackney,Hackney South and Shoreditch,N1 5JN,51.53502,-0.08585
Woodberry Down Community Primary School,London,London,Hackney,Hackney North and Stoke Newington,N4 1SY,51.57319,-0.09105
Kingsmead Primary School,London,London,Hackney,Hackney South and Shoreditch,E9 5PP,51.55383,-0.03498
Sir Thomas Abney School,London,London,Hackney,Hackney North and Stoke Newington,N16 5ED,51.57079,-0.08144
Grasmere Primary School,London,London,Hackney,Hackney North and Stoke Newington,N16 9PD,51.55552,-0.0839
Jubilee Primary School,London,London,Hackney,Hackney North and Stoke Newington,N16 6NR,51.56607,-0.06594
Nightingale Primary School,London,London,Hackney,Hackney North and Stoke Newington,E5 8PH,51.55807,-0.0633
Baden-Powell School,London,London,Hackney,Hackney North and Stoke Newington,E5 8DN,51.55777,-0.05841
Harrington Hill Primary School,London,London,Hackney,Hackney North and Stoke Newington,E5 9EY,51.56764,-0.05336
Holmleigh Primary School,London,London,Hackney,Hackney North and Stoke Newington,N16 5PU,51.57025,-0.07423
Grazebrook Primary School,London,London,Hackney,Hackney North and Stoke Newington,N16 0QP,51.56419,-0.08313
Parkwood Primary School,London,London,Hackney,Hackney North and Stoke Newington,N4 2HQ,51.56506,-0.09931
Benthal Primary School,London,London,Hackney,Hackney North and Stoke Newington,N16 7AU,51.55829,-0.06518
Mandeville Primary School,London,London,Hackney,Hackney South and Shoreditch,E5 0BT,51.55713,-0.04035
Holy Trinity Church of England Primary School,London,London,Hackney,Hackney North and Stoke Newington,E8 3DY,51.54468,-0.074
Our Lady and St Joseph Catholic Primary School,London,London,Hackney,Hackney South and Shoreditch,N1 4JB,51.54494,-0.08043
St John the Baptist Voluntary Aided Church of England Primary School,London,London,Hackney,Hackney South and Shoreditch,N1 6JG,51.53087,-0.08398
St Matthias Church of England Primary School,London,London,Hackney,Hackney North and Stoke Newington,N16 8DD,51.55249,-0.07935
St Monica's Roman Catholic Primary School,London,London,Hackney,Hackney South and Shoreditch,N1 6QN,51.52841,-0.08061
St. Paul's With St. Michael's CofE Primary School,London,London,Hackney,Hackney South and Shoreditch,E8 4PB,51.53786,-0.06472
St John of Jerusalem Church of England Primary School,London,London,Hackney,Hackney South and Shoreditch,E9 7JF,51.54008,-0.05015
"St Mary's Church of England Primary School, Stoke Newington",London,London,Hackney,Hackney North and Stoke Newington,N16 0JT,51.56209,-0.08192
St Scholastica's Catholic Primary School,London,London,Hackney,Hackney North and Stoke Newington,E5 8BS,51.55853,-0.05997
Simon Marks Jewish Primary School,London,London,Hackney,Hackney North and Stoke Newington,N16 6PD,51.56539,-0.06936
Haggerston School,London,London,Hackney,Hackney South and Shoreditch,E2 8LS,51.53238,-0.07149
Stoke Newington School and Sixth Form,London,London,Hackney,Hackney North and Stoke Newington,N16 9EX,51.55788,-0.0846
Our Lady's Catholic High School,London,London,Hackney,Hackney North and Stoke Newington,N16 5AF,51.57427,-0.07523
The Urswick School - A Church of England Secondary School,London,London,Hackney,Hackney South and Shoreditch,E9 6NR,51.54446,-0.05262
Cardinal Pole Catholic School,London,London,Hackney,Hackney South and Shoreditch,E9 6LG,51.54678,-0.04671
Stormont House School,London,London,Hackney,Hackney North and Stoke Newington,E5 8NP,51.55275,-0.05943
The Garden School,London,London,Hackney,Hackney North and Stoke Newington,N16 8BZ,51.55416,-0.07846
Ickburgh School,London,London,Hackney,Hackney South and Shoreditch,E9 5RB,51.5466,-0.03668
Randolph Beresford Early Years Centre,London,London,Hammersmith and Fulham,Hammersmith,W12 7PH,51.51127,-0.23164
Vanessa Nursery School,London,London,Hammersmith and Fulham,Hammersmith,W12 9JA,51.50262,-0.2348
James Lee Nursery School,London,London,Hammersmith and Fulham,Hammersmith,W14 9BH,51.49218,-0.21308
Bayonne Nursery School,London,London,Hammersmith and Fulham,Hammersmith,W6 8PF,51.48397,-0.21455
Addison Primary School,London,London,Hammersmith and Fulham,Hammersmith,W14 0DT,51.50029,-0.21835
Avonmore Primary School,London,London,Hammersmith and Fulham,Hammersmith,W14 8SH,51.49489,-0.20933
Brackenbury Primary School,London,London,Hammersmith and Fulham,Hammersmith,W6 0BA,51.49983,-0.23227
Miles Coverdale Primary School,London,London,Hammersmith and Fulham,Hammersmith,W12 8JJ,51.50486,-0.22905
Flora Gardens Primary School,London,London,Hammersmith and Fulham,Hammersmith,W6 0UD,51.49483,-0.23547
Kenmont Primary School,London,London,Hammersmith and Fulham,Hammersmith,NW10 6AL,51.53169,-0.23549
Melcombe Primary School,London,London,Hammersmith and Fulham,Hammersmith,W6 9ER,51.48618,-0.22114
Old Oak Primary School,London,London,Hammersmith and Fulham,Hammersmith,W12 0AS,51.51943,-0.24656
Sir John Lillie Primary School,London,London,Hammersmith and Fulham,Chelsea and Fulham,SW6 7LN,51.48326,-0.20922
Wendell Park Primary School,London,London,Hammersmith and Fulham,Hammersmith,W12 9LB,51.50375,-0.24838
Wormholt Park Primary School,London,London,Hammersmith and Fulham,Hammersmith,W12 0SR,51.51144,-0.24018
All Saints CofE Primary School,London,London,Hammersmith and Fulham,Chelsea and Fulham,SW6 6ED,51.47285,-0.21363
Holy Cross RC School,London,London,Hammersmith and Fulham,Chelsea and Fulham,SW6 4BL,51.47594,-0.1975
John Betts Primary School,London,London,Hammersmith and Fulham,Hammersmith,W6 0UA,51.49855,-0.23752
St Augustine's RC Primary School,London,London,Hammersmith and Fulham,Hammersmith,W6 8QE,51.48428,-0.20961
St Johns Walham Green Church of England Primary School,London,London,Hammersmith and Fulham,Chelsea and Fulham,SW6 6AS,51.47697,-0.20912
St Mary's Catholic Primary School,London,London,Hammersmith and Fulham,Hammersmith,W14 0LT,51.49893,-0.21593
St Paul's CofE Primary School,London,London,Hammersmith and Fulham,Hammersmith,W6 9BP,51.49063,-0.2272
St Peter's Primary School,London,London,Hammersmith and Fulham,Hammersmith,W6 9BA,51.49204,-0.24095
St Stephen's CofE Primary School,London,London,Hammersmith and Fulham,Hammersmith,W12 8LH,51.50556,-0.2276
Good Shepherd RC Primary School,London,London,Hammersmith and Fulham,Hammersmith,W12 9BY,51.50282,-0.24562
St John XXIII Catholic Primary School,London,London,Hammersmith and Fulham,Hammersmith,W12 7QT,51.51149,-0.23369
St Thomas of Canterbury Catholic Primary School,London,London,Hammersmith and Fulham,Chelsea and Fulham,SW6 7HB,51.48178,-0.2066
Queensmill School,London,London,Hammersmith and Fulham,Hammersmith,W12 0NW,51.50752,-0.24261
Woodlane High School,London,London,Hammersmith and Fulham,Hammersmith,W12 0TN,51.51684,-0.2313
Jack Tizard School,London,London,Hammersmith and Fulham,Hammersmith,W12 7PA,51.51023,-0.23082
Cambridge School,London,London,Hammersmith and Fulham,Hammersmith,W12 0SP,51.51168,-0.23649
Margaret McMillan Nursery School,London,London,Islington,Islington North,N19 3SF,51.57207,-0.12581
Kate Greenaway Nursery School and Children's Centre,London,London,Islington,Islington South and Finsbury,N1 0UH,51.53633,-0.12061
North Islington Nursery School,London,London,Islington,Islington North,N4 3RB,51.56644,-0.11369
New River College Primary,London,London,Islington,Islington South and Finsbury,N1 0HN,51.53776,-0.10832
New River College Secondary,London,London,Islington,Islington South and Finsbury,N7 8RH,51.54789,-0.11334
Ambler Primary School and Children's Centre,London,London,Islington,Islington North,N4 2DR,51.56212,-0.10069
Copenhagen Primary School,London,London,Islington,Islington South and Finsbury,N1 0WF,51.53562,-0.1188
Drayton Park Primary School,London,London,Islington,Islington North,N5 1PJ,51.55154,-0.10574
Duncombe Primary School,London,London,Islington,Islington North,N19 4JA,51.56699,-0.1237
Gillespie Primary School,London,London,Islington,Islington North,N5 1LH,51.55971,-0.10102
Grafton Primary School,London,London,Islington,Islington North,N7 6AR,51.55938,-0.11941
Hanover Primary School,London,London,Islington,Islington South and Finsbury,N1 8BD,51.53294,-0.09872
Hargrave Park Primary School,London,London,Islington,Islington North,N19 5BS,51.56428,-0.14007
Laycock Primary School,London,London,Islington,Islington South and Finsbury,N1 1SW,51.54451,-0.1047
Moreland Primary School,London,London,Islington,Islington South and Finsbury,EC1V 8BB,51.52854,-0.10034
Pakeman Primary School,London,London,Islington,Islington North,N7 6DU,51.55949,-0.11456
Robert Blair School,London,London,Islington,Islington South and Finsbury,N7 9QJ,51.54508,-0.12013
Thornhill Primary School,London,London,Islington,Islington South and Finsbury,N1 1HX,51.54033,-0.10948
Vittoria Primary School,London,London,Islington,Islington South and Finsbury,N1 0TJ,51.53529,-0.11322
Winton Primary School,London,London,Islington,Islington South and Finsbury,N1 9AZ,51.53338,-0.11837
Yerbury Primary School,London,London,Islington,Islington North,N19 4RR,51.56005,-0.13162
Tufnell Park Primary School,London,London,Islington,Islington North,N7 0HJ,51.55433,-0.12972
Highbury Quadrant Primary School,London,London,Islington,Islington North,N5 2DP,51.55394,-0.09187
Ashmount Primary School,London,London,Islington,Islington North,N8 9EG,51.5745,-0.12173
Prior Weston Primary School and Children's Centre,London,London,Islington,Islington South and Finsbury,EC1Y 8JA,51.52192,-0.09334
Sacred Heart Catholic Primary School,London,London,Islington,Islington South and Finsbury,N7 8JN,51.55022,-0.11364
St John Evangelist RC Primary School,London,London,Islington,Islington South and Finsbury,N1 8BL,51.53395,-0.10407
St John's Upper Holloway CofE Primary School,London,London,Islington,Islington North,N19 5RR,51.56265,-0.1316
St John's Highbury Vale CofE Primary School,London,London,Islington,Islington North,N5 1DL,51.55827,-0.10018
St Joseph's Catholic Primary School,London,London,Islington,Islington North,N19 5NE,51.56744,-0.13876
St Jude and St Paul's CofE Primary School,London,London,Islington,Islington North,N1 4AZ,51.54814,-0.07909
St Luke's CofE Primary School,London,London,Islington,Islington South and Finsbury,EC1V 3SJ,51.52654,-0.09196
St Mark's CofE Primary School,London,London,Islington,Islington North,N19 4JF,51.56435,-0.12094
St Mary's CofE Primary School,London,London,Islington,Islington South and Finsbury,N1 2EP,51.53935,-0.09988
St Peter and St Paul RC Primary School,London,London,Islington,Islington South and Finsbury,EC1V 0EU,51.52497,-0.10094
St Andrew's (Barnsbury) Church of England Primary School,London,London,Islington,Islington South and Finsbury,N1 0LB,51.53818,-0.11462
St Joan of Arc RC Primary School,London,London,Islington,Islington North,N5 2UX,51.5566,-0.0961
Christ The King RC Primary School,London,London,Islington,Islington North,N4 3QW,51.56688,-0.11392
Blessed Sacrament RC Primary School,London,London,Islington,Islington South and Finsbury,N1 0UF,51.53661,-0.11905
Holloway School,London,London,Islington,Islington North,N7 0JG,51.55307,-0.12935
Highbury Fields School,London,London,Islington,Islington North,N5 1AR,51.5528,-0.10152
Elizabeth Garrett Anderson School,London,London,Islington,Islington South and Finsbury,N1 9QG,51.53295,-0.11361
Central Foundation Boys' School,London,London,Islington,Islington South and Finsbury,EC2A 4SH,51.52511,-0.08574
St Aloysius RC College,London,London,Islington,Islington North,N6 5LY,51.56981,-0.13866
Richard Cloudesley School,London,London,Islington,Islington South and Finsbury,N1 8RE,51.53599,-0.09823
Samuel Rhodes MLD School,London,London,Islington,Islington North,N5 2EG,51.54964,-0.09766
Golborne Children's Centre,London,London,Kensington and Chelsea,Kensington,W10 5TN,51.52052,-0.20663
St Anne's & Avondale Park Nursery School,London,London,Kensington and Chelsea,Kensington,W11 4EE,51.51065,-0.21377
Chelsea Open Air Nursery School,London,London,Kensington and Chelsea,Chelsea and Fulham,SW3 5JE,51.48503,-0.17004
Maxilla Nursery School,London,London,Kensington and Chelsea,Kensington,W10 5TN,51.52052,-0.20663
Ashburnham Community School,London,London,Kensington and Chelsea,Chelsea and Fulham,SW10 0DT,51.48181,-0.17792
Barlby Primary School,London,London,Kensington and Chelsea,Kensington,W10 6BH,51.5233,-0.21645
Bevington Primary School,London,London,Kensington and Chelsea,Kensington,W10 5TW,51.52124,-0.20887
Bousfield Primary School,London,London,Kensington and Chelsea,Chelsea and Fulham,SW5 0DJ,51.49007,-0.18619
Colville Primary School,London,London,Kensington and Chelsea,Kensington,W11 2DF,51.51463,-0.20366
Fox Primary School,London,London,Kensington and Chelsea,Kensington,W8 7PP,51.50749,-0.1967
Marlborough Primary School,London,London,Kensington and Chelsea,Chelsea and Fulham,SW3 3AP,51.49267,-0.16588
Oxford Gardens Primary School,London,London,Kensington and Chelsea,Kensington,W10 6NF,51.51739,-0.21669
Park Walk Primary School,London,London,Kensington and Chelsea,Chelsea and Fulham,SW10 0AY,51.48415,-0.17797
Avondale Park Primary School,London,London,Kensington and Chelsea,Kensington,W11 4EE,51.51065,-0.21377
Thomas Jones Primary School,London,London,Kensington and Chelsea,Kensington,W11 1RQ,51.51491,-0.21038
Christ Church CofE Primary School,London,London,Kensington and Chelsea,Chelsea and Fulham,SW3 4AA,51.48549,-0.16435
Holy Trinity CofE Primary School,London,London,Kensington and Chelsea,Chelsea and Fulham,SW1X 9DE,51.49329,-0.15669
Oratory Roman Catholic Primary School,London,London,Kensington and Chelsea,Kensington,SW3 6QH,51.49061,-0.17031
St Thomas' CofE Primary School,London,London,Kensington and Chelsea,Kensington,W10 5EF,51.52377,-0.20851
St Barnabas and St Philip's CofE Primary School,London,London,Kensington and Chelsea,Kensington,W8 6EJ,51.49789,-0.19817
Saint Francis of Assisi Catholic Primary School,London,London,Kensington and Chelsea,Kensington,W11 4BJ,51.51221,-0.21693
St Clement and St James CofE Primary School,London,London,Kensington and Chelsea,Kensington,W11 4PG,51.50907,-0.21136
St Joseph's Catholic Primary School,London,London,Kensington and Chelsea,Chelsea and Fulham,SW3 2QT,51.49284,-0.16201
St Mary Abbots CofE Primary School,London,London,Kensington and Chelsea,Kensington,W8 4SP,51.50191,-0.19187
St Cuthbert with St Matthias CofE Primary School,London,London,Kensington and Chelsea,Kensington,SW5 9UE,51.48944,-0.19365
Saint Mary's Catholic Primary School,London,London,Kensington and Chelsea,Kensington,W10 5AW,51.52507,-0.21079
Servite RC Primary School,London,London,Kensington and Chelsea,Chelsea and Fulham,SW10 9NA,51.48503,-0.18307
Saint Thomas More Language College,London,London,Kensington and Chelsea,Chelsea and Fulham,SW3 2QS,51.49289,-0.16217
All Saints Catholic College,London,London,Kensington and Chelsea,Kensington,W10 6EL,51.52063,-0.21411
Our Lady of Victories RC Primary School,London,London,Kensington and Chelsea,Kensington,SW7 5AQ,51.49283,-0.17946
St Charles Catholic Primary School,London,London,Kensington and Chelsea,Kensington,W10 6EB,51.52171,-0.21394
Chelsea  Community Hospital  School,London,London,Kensington and Chelsea,Chelsea and Fulham,SW10 9NH,51.4843,-0.18164
Triangle Nursery School,London,London,Lambeth,Vauxhall,SW4 7JQ,51.4608,-0.13317
Effra Nursery School and Early Years Centre,London,London,Lambeth,Dulwich and West Norwood,SW2 1PL,51.4567,-0.1099
Ethelred Nursery School and Children's Centre,London,London,Lambeth,Vauxhall,SE11 6BG,51.49099,-0.112
Maytree Nursery School,London,London,Lambeth,Streatham,SW4 8EG,51.45156,-0.13104
Holmewood Nursery School,London,London,Lambeth,Streatham,SW2 2RW,51.4477,-0.12006
Ashmole Primary School,London,London,Lambeth,Vauxhall,SW8 1NT,51.48201,-0.11493
Clapham Manor Primary School,London,London,Lambeth,Vauxhall,SW4 0BZ,51.46463,-0.13794
Granton Primary School,London,London,Lambeth,Streatham,SW16 5AN,51.4142,-0.14173
Heathbrook Primary School,London,London,Lambeth,Vauxhall,SW8 3EH,51.47011,-0.14314
Henry Cavendish Primary School,London,London,Lambeth,Streatham,SW12 0JA,51.44474,-0.1428
Jessop Primary School,London,London,Lambeth,Dulwich and West Norwood,SE24 0BJ,51.46003,-0.10136
Kingswood Primary School,London,London,Lambeth,Dulwich and West Norwood,SE27 9RD,51.42689,-0.09007
Lark Hall Primary School (Including Lark Hall Centre for Pupils with Autism),London,London,Lambeth,Vauxhall,SW4 6PH,51.47066,-0.12956
Paxton Primary School,London,London,Lambeth,Dulwich and West Norwood,SE19 1PA,51.42226,-0.08083
Richard Atkins Primary School,London,London,Lambeth,Streatham,SW2 4JP,51.44808,-0.12695
Stockwell Primary School,London,London,Lambeth,Vauxhall,SW9 9TG,51.46643,-0.11735
Sudbourne Primary School,London,London,Lambeth,Streatham,SW2 5AP,51.45808,-0.12076
Sunnyhill Primary School,London,London,Lambeth,Streatham,SW16 2UW,51.42931,-0.12231
Telferscot Primary School,London,London,Lambeth,Streatham,SW12 0HW,51.44273,-0.13776
Vauxhall Primary School,London,London,Lambeth,Vauxhall,SE11 5LG,51.48956,-0.11733
Walnut Tree Walk Primary School,London,London,Lambeth,Vauxhall,SE11 6DS,51.49408,-0.11285
Woodmansterne School,London,London,Lambeth,Streatham,SW16 5XE,51.41238,-0.13655
Wyvil Primary School and Centres for Children With Speech and Language Impairment and Autism,London,London,Lambeth,Vauxhall,SW8 2TJ,51.48129,-0.12545
Crown Lane Primary School,London,London,Lambeth,Dulwich and West Norwood,SW16 3HX,51.42343,-0.10902
Fenstanton Primary School,London,London,Lambeth,Streatham,SW2 3PW,51.44224,-0.11365
Elm Wood School,London,London,Lambeth,Dulwich and West Norwood,SE27 9RR,51.43168,-0.09246
Allen Edwards Primary School,London,London,Lambeth,Vauxhall,SW4 6RP,51.47287,-0.12721
Glenbrook Primary School,London,London,Lambeth,Streatham,SW4 8LD,51.45307,-0.1329
Julian's School,London,London,Lambeth,Dulwich and West Norwood,SE27 0JF,51.43084,-0.10559
Herbert Morrison Primary School,London,London,Lambeth,Vauxhall,SW8 2HP,51.47865,-0.12589
Streatham Wells Primary School,London,London,Lambeth,Streatham,SW2 3NJ,51.44022,-0.11634
Archbishop Sumner Church of England Primary School,London,London,Lambeth,Vauxhall,SE11 4PH,51.49159,-0.10996
Christ Church Primary SW9,London,London,Lambeth,Vauxhall,SW9 6HN,51.47616,-0.109
Macaulay Church of England Primary School,London,London,Lambeth,Vauxhall,SW4 0NU,51.46325,-0.14767
St Andrew's Church of England Primary School,London,London,Lambeth,Vauxhall,SW9 9DE,51.46834,-0.12235
St John the Divine Church of England Primary School,London,London,Lambeth,Camberwell and Peckham,SE5 0SX,51.47871,-0.10325
St John's Angell Town Church of England Primary School,London,London,Lambeth,Dulwich and West Norwood,SW9 7HH,51.46805,-0.10854
St Jude's Church of England Primary School,London,London,Lambeth,Dulwich and West Norwood,SE24 0EL,51.45476,-0.10556
St Mark's Church of England Primary School,London,London,Lambeth,Vauxhall,SE11 5SL,51.48457,-0.11731
St Saviour's Church of England Primary School,London,London,Lambeth,Dulwich and West Norwood,SE24 0AY,51.46247,-0.09766
St Stephen's Church of England Primary School,London,London,Lambeth,Vauxhall,SW8 1EJ,51.47979,-0.12264
Holy Trinity Church of England Primary School,London,London,Lambeth,Streatham,SW2 2RL,51.44704,-0.11876
St Helen's Catholic School,London,London,Lambeth,Vauxhall,SW9 0TQ,51.46713,-0.11431
Norwood School,London,London,Lambeth,Dulwich and West Norwood,SE19 3NY,51.42271,-0.09836
Lilian Baylis Technology School,London,London,Lambeth,Vauxhall,SE11 5QY,51.4862,-0.11934
Saint Gabriel's College,London,London,Lambeth,Vauxhall,SW9 6UL,51.47597,-0.10241
St Bernadette Catholic Junior School,London,London,Lambeth,Streatham,SW12 0AB,51.44791,-0.14478
St Anne's Catholic Primary School,London,London,Lambeth,Vauxhall,SE11 5JA,51.48512,-0.11882
St Bede's Catholic Infant School,London,London,Lambeth,Streatham,SW12 0LF,51.44494,-0.1352
St Andrew's Catholic Primary School,London,London,Lambeth,Streatham,SW16 2ET,51.42432,-0.12581
Immanuel and St Andrew Church of England Primary School,London,London,Lambeth,Streatham,SW16 5SL,51.41934,-0.13154
Reay Primary School,London,London,Lambeth,Vauxhall,SW9 0EN,51.4775,-0.11508
St Mary's Roman Catholic Primary School,London,London,Lambeth,Streatham,SW4 9QJ,51.45925,-0.13831
La Retraite Roman Catholic Girls' School,London,London,Lambeth,Streatham,SW12 0AB,51.44791,-0.14478
Bishop Thomas Grant Catholic Secondary School,London,London,Lambeth,Streatham,SW16 2HY,51.42497,-0.11873
London Nautical School,London,London,Lambeth,Vauxhall,SE1 9NA,51.50643,-0.10829
Turney Primary and Secondary Special School,London,London,Lambeth,Dulwich and West Norwood,SE21 8LX,51.44657,-0.09681
Lansdowne School,London,London,Lambeth,Vauxhall,SW9 9QG,51.46694,-0.11872
Elm Court School,London,London,Lambeth,Streatham,SW2 2EF,51.44794,-0.1166
Clyde Nursery School.,London,London,Lewisham,"Lewisham, Deptford",SE8 5NH,51.48467,-0.03457
Chelwood Nursery School,London,London,Lewisham,"Lewisham, Deptford",SE4 2QQ,51.45858,-0.04304
Adamsrill Primary School,London,London,Lewisham,Lewisham West and Penge,SE26 4AQ,51.43074,-0.04047
Athelney Primary School,London,London,Lewisham,Lewisham West and Penge,SE6 3LD,51.43372,-0.02443
Baring Primary School,London,London,Lewisham,Lewisham East,SE12 0NB,51.44445,0.01256
Beecroft Garden Primary,London,London,Lewisham,"Lewisham, Deptford",SE4 2BS,51.45683,-0.03776
Cooper's Lane Primary School,London,London,Lewisham,Lewisham East,SE12 0LF,51.43728,0.0212
Dalmain Primary School,London,London,Lewisham,"Lewisham, Deptford",SE23 1AS,51.44404,-0.04424
Deptford Park Primary School,London,London,Lewisham,"Lewisham, Deptford",SE8 5RJ,51.48731,-0.03684
Downderry Primary School,London,London,Lewisham,Lewisham East,BR1 5QL,51.4282,0.00037
Edmund Waller Primary School,London,London,Lewisham,"Lewisham, Deptford",SE14 5LY,51.47036,-0.04843
Elfrida Primary School,London,London,Lewisham,Lewisham West and Penge,SE6 3EN,51.42862,-0.02394
Forster Park Primary School,London,London,Lewisham,Lewisham East,SE6 1PQ,51.4342,0.00361
Gordonbrock Primary School,London,London,Lewisham,"Lewisham, Deptford",SE4 1HQ,51.45478,-0.02827
Grinling Gibbons Primary School,London,London,Lewisham,"Lewisham, Deptford",SE8 5LW,51.48113,-0.02961
Haseltine Primary School,London,London,Lewisham,Lewisham West and Penge,SE26 5AD,51.42819,-0.03656
Brindishe Green School,London,London,Lewisham,"Lewisham, Deptford",SE13 6EH,51.451,-0.00516
Holbeach Primary School,London,London,Lewisham,Lewisham East,SE6 4TP,51.4479,-0.02278
John Stainer Community Primary School,London,London,Lewisham,"Lewisham, Deptford",SE4 2DY,51.4642,-0.04073
Kelvin Grove Primary School,London,London,Lewisham,Lewisham West and Penge,SE26 6BB,51.43259,-0.06277
Kender Primary School,London,London,Lewisham,"Lewisham, Deptford",SE14 5JA,51.47495,-0.05081
Launcelot Primary School,London,London,Lewisham,Lewisham East,BR1 5EA,51.42674,0.016
Brindishe Manor School,London,London,Lewisham,Lewisham East,SE13 5LS,51.45235,0.00144
Lucas Vale Primary School,London,London,Lewisham,"Lewisham, Deptford",SE8 4QB,51.47178,-0.02849
Marvels Lane Primary School,London,London,Lewisham,Lewisham East,SE12 9RA,51.42917,0.03272
Rangefield Primary School,London,London,Lewisham,Lewisham East,BR1 4RP,51.42396,0.00416
Rathfern Primary School,London,London,Lewisham,Lewisham East,SE6 4NL,51.43992,-0.03248
Rushey Green Primary School,London,London,Lewisham,Lewisham East,SE6 2LA,51.44223,-0.01619
Sandhurst Primary School,London,London,Lewisham,Lewisham East,SE6 1NW,51.44311,-0.00039
Stillness Junior School,London,London,Lewisham,"Lewisham, Deptford",SE23 1NH,51.44949,-0.03889
Stillness Infant School,London,London,Lewisham,"Lewisham, Deptford",SE23 1NH,51.44949,-0.03889
Torridon Primary School,London,London,Lewisham,Lewisham East,SE6 1TG,51.43644,-0.00319
John Ball Primary School,London,London,Lewisham,Lewisham East,SE3 0TP,51.46618,0.00639
Fairlawn Primary School,London,London,Lewisham,Lewisham West and Penge,SE23 3SB,51.44646,-0.0547
Eliot Bank Primary School,London,London,Lewisham,Lewisham West and Penge,SE26 4BU,51.43647,-0.06104
Sir Francis Drake Primary School,London,London,Lewisham,"Lewisham, Deptford",SE8 5AE,51.48679,-0.04213
Myatt Garden Primary School,London,London,Lewisham,"Lewisham, Deptford",SE4 1DF,51.47103,-0.03087
Horniman Primary School,London,London,Lewisham,Lewisham West and Penge,SE23 3BP,51.44414,-0.05882
Perrymount Primary School,London,London,Lewisham,Lewisham West and Penge,SE23 2PX,51.43606,-0.04675
Ashmead Primary School,London,London,Lewisham,"Lewisham, Deptford",SE8 4DX,51.46964,-0.02589
Brindishe Lee School,London,London,Lewisham,Lewisham East,SE12 8NA,51.45194,0.00856
Kilmorie Primary School,London,London,Lewisham,Lewisham West and Penge,SE23 2SP,51.43772,-0.0402
All Saints' Church of England Primary School,London,London,Lewisham,Lewisham East,SE3 0TX,51.46933,0.0042
St Mary Magdalen's Catholic Primary School,London,London,Lewisham,"Lewisham, Deptford",SE4 2BB,51.45823,-0.03808
Good Shepherd RC School,London,London,Lewisham,Lewisham East,BR1 5EP,51.42684,0.00983
Holy Trinity Church of England Primary School,London,London,Lewisham,Lewisham West and Penge,SE23 3HZ,51.4353,-0.05673
St Margaret's Lee CofE Primary School,London,London,Lewisham,Lewisham East,SE13 5SG,51.4596,0.00507
St Augustine's Catholic Primary School and Nursery,London,London,Lewisham,Lewisham West and Penge,SE6 3RD,51.42436,-0.01669
St Bartholomews's Church of England Primary School,London,London,Lewisham,Lewisham West and Penge,SE26 4LJ,51.43099,-0.05514
St James's Hatcham Church of England Primary School,London,London,Lewisham,"Lewisham, Deptford",SE14 6AD,51.47421,-0.03882
St John Baptist Southend Church of England Primary School,London,London,Lewisham,Lewisham East,BR1 5RL,51.42846,-0.00987
St Joseph's Catholic Primary School,London,London,Lewisham,"Lewisham, Deptford",SE8 3PH,51.47875,-0.02426
St Mary's Lewisham Church of England Primary School,London,London,Lewisham,"Lewisham, Deptford",SE13 6NX,51.45503,-0.01539
St Michael's Church of England Primary School,London,London,Lewisham,Lewisham West and Penge,SE26 4HH,51.42975,-0.04178
Our Lady and St Philip Neri Roman Catholic Primary School,London,London,Lewisham,Lewisham West and Penge,SE26 5SE,51.42643,-0.04149
St Saviour's Catholic Primary School,London,London,Lewisham,"Lewisham, Deptford",SE13 6AL,51.45994,-0.01038
St Stephen's Church of England Primary School,London,London,Lewisham,"Lewisham, Deptford",SE8 4ED,51.47018,-0.02377
St William of York Catholic Primary School,London,London,Lewisham,"Lewisham, Deptford",SE23 1PS,51.4443,-0.03918
Holy Cross Catholic Primary School,London,London,Lewisham,Lewisham East,SE6 2LD,51.44284,-0.01682
Deptford Green School,London,London,Lewisham,"Lewisham, Deptford",SE14 6AN,51.47825,-0.03575
Sydenham School,London,London,Lewisham,Lewisham West and Penge,SE26 4RD,51.43423,-0.05892
Conisborough College,London,London,Lewisham,Lewisham East,SE6 2SE,51.43349,-0.01132
Sedgehill School,London,London,Lewisham,Lewisham West and Penge,SE6 3QW,51.42314,-0.02078
Forest Hill School,London,London,Lewisham,Lewisham West and Penge,SE23 2XN,51.43191,-0.0478
Prendergast Ladywell School,London,London,Lewisham,"Lewisham, Deptford",SE4 1SA,51.45164,-0.02977
Addey and Stanhope School,London,London,Lewisham,"Lewisham, Deptford",SE14 6TJ,51.47493,-0.02749
"Trinity Church of England School, Lewisham",London,London,Lewisham,Lewisham East,SE12 8PD,51.45521,0.00751
Prendergast School,London,London,Lewisham,"Lewisham, Deptford",SE4 1LE,51.45805,-0.02753
Bonus Pastor Catholic College,London,London,Lewisham,Lewisham East,BR1 5PZ,51.42768,-0.0017
Brent Knoll School,London,London,Lewisham,Lewisham West and Penge,SE23 2QU,51.43146,-0.039
New Woodlands School,London,London,Lewisham,Lewisham East,BR1 5PD,51.42905,0.00166
Greenvale School,London,London,Lewisham,Lewisham East,SE6 1UF,51.43297,0.00173
Watergate School,London,London,Lewisham,Lewisham West and Penge,SE6 3WG,51.42525,-0.02203
Kintore Way Nursery School and Children's Centre,London,London,Southwark,Bermondsey and Old Southwark,SE1 3BW,51.49437,-0.07607
Ann Bernadt Nursery School,London,London,Southwark,Camberwell and Peckham,SE15 6DT,51.4773,-0.078
Dulwich Wood Nursery School,London,London,Southwark,Dulwich and West Norwood,SE21 8QS,51.43032,-0.07969
Nell Gwynn Nursery School,London,London,Southwark,Camberwell and Peckham,SE15 2TT,51.4761,-0.06371
Grove Children & Family Centre,London,London,Southwark,Camberwell and Peckham,SE15 6BY,51.48038,-0.08286
Albion Primary School,London,London,Southwark,Bermondsey and Old Southwark,SE16 7JD,51.50007,-0.0517
Bellenden Primary School,London,London,Southwark,Camberwell and Peckham,SE15 4JP,51.46459,-0.06729
Camelot Primary School,London,London,Southwark,Camberwell and Peckham,SE15 1QP,51.48042,-0.06343
Charles Dickens Primary School,London,London,Southwark,Bermondsey and Old Southwark,SE1 1AF,51.50128,-0.09646
Cobourg Primary School,London,London,Southwark,Bermondsey and Old Southwark,SE5 0JD,51.48479,-0.07694
Comber Grove School,London,London,Southwark,Camberwell and Peckham,SE5 0LQ,51.47762,-0.09734
Crampton Primary,London,London,Southwark,Bermondsey and Old Southwark,SE17 3LE,51.48997,-0.10092
Crawford Primary School,London,London,Southwark,Camberwell and Peckham,SE5 9NF,51.47156,-0.09487
Dog Kennel Hill School,London,London,Southwark,Camberwell and Peckham,SE22 8AB,51.46539,-0.08288
Goodrich Community Primary School,London,London,Southwark,Dulwich and West Norwood,SE22 0EP,51.45084,-0.06856
Grange Primary School,London,London,Southwark,Bermondsey and Old Southwark,SE1 4RP,51.49557,-0.08211
Heber Primary School,London,London,Southwark,Dulwich and West Norwood,SE22 9LA,51.45325,-0.07362
Hollydale Primary School,London,London,Southwark,Camberwell and Peckham,SE15 2AR,51.4673,-0.05251
Ilderton Primary School,London,London,Southwark,Camberwell and Peckham,SE16 3LA,51.48517,-0.05352
Ivydale Primary School,London,London,Southwark,Camberwell and Peckham,SE15 3BU,51.46064,-0.04661
John Ruskin Primary School and Language Classes,London,London,Southwark,Camberwell and Peckham,SE5 0PQ,51.48214,-0.09897
Keyworth Primary School,London,London,Southwark,Bermondsey and Old Southwark,SE17 3TR,51.48583,-0.10513
Dulwich Wood Primary School,London,London,Southwark,Dulwich and West Norwood,SE21 8NS,51.43424,-0.0839
Lyndhurst Primary School,London,London,Southwark,Camberwell and Peckham,SE5 8SN,51.46953,-0.087
Michael Faraday School,London,London,Southwark,Camberwell and Peckham,SE17 2HR,51.48488,-0.08839
Riverside Primary School,London,London,Southwark,Bermondsey and Old Southwark,SE16 4PS,51.49915,-0.06389
Robert Browning Primary School,London,London,Southwark,Bermondsey and Old Southwark,SE17 1DQ,51.48941,-0.09331
Rotherhithe Primary School,London,London,Southwark,Bermondsey and Old Southwark,SE16 2PL,51.49157,-0.04986
Snowsfields Primary School,London,London,Southwark,Bermondsey and Old Southwark,SE1 3TD,51.50151,-0.08387
Southwark Park Primary School,London,London,Southwark,Bermondsey and Old Southwark,SE16 2JH,51.49462,-0.05895
Tower Bridge Primary School,London,London,Southwark,Bermondsey and Old Southwark,SE1 2AE,51.50158,-0.07701
Townsend Primary School,London,London,Southwark,Bermondsey and Old Southwark,SE17 1HJ,51.49257,-0.08449
Victory Primary School,London,London,Southwark,Bermondsey and Old Southwark,SE17 1PT,51.49293,-0.09283
Charlotte Sharman Primary School,London,London,Southwark,Bermondsey and Old Southwark,SE11 4SN,51.49527,-0.10616
Phoenix Primary School,London,London,Southwark,Bermondsey and Old Southwark,SE1 5JT,51.4862,-0.0674
Pilgrims' Way Primary School,London,London,Southwark,Camberwell and Peckham,SE15 1EF,51.48048,-0.05593
Alfred Salter Primary School,London,London,Southwark,Bermondsey and Old Southwark,SE16 7LP,51.4996,-0.04357
Oliver Goldsmith Primary School,London,London,Southwark,Camberwell and Peckham,SE5 8UH,51.47409,-0.08109
Boutcher Church of England Primary School,London,London,Southwark,Bermondsey and Old Southwark,SE1 3BW,51.49437,-0.07607
Dulwich Village Church of England Infants' School,London,London,Southwark,Dulwich and West Norwood,SE21 7AL,51.45162,-0.08708
English Martyrs Roman Catholic Primary School,London,London,Southwark,Bermondsey and Old Southwark,SE17 1QD,51.4898,-0.08736
St James the Great Roman Catholic Primary School,London,London,Southwark,Camberwell and Peckham,SE15 5LP,51.47435,-0.0731
St Francis RC Primary School,London,London,Southwark,Camberwell and Peckham,SE15 1RQ,51.48003,-0.06705
St George's Church of England Primary School,London,London,Southwark,Camberwell and Peckham,SE5 7TF,51.47895,-0.08266
St George's Cathedral Catholic Primary School,London,London,Southwark,Bermondsey and Old Southwark,SE1 6HR,51.49777,-0.10686
St James' Church of England Primary School,London,London,Southwark,Bermondsey and Old Southwark,SE16 4SU,51.49783,-0.06777
St John's and St Clement's Church of England Primary School,London,London,Southwark,Camberwell and Peckham,SE15 4DY,51.46309,-0.07179
St John's Walworth Church of England Primary School,London,London,Southwark,Bermondsey and Old Southwark,SE17 1NQ,51.4911,-0.09517
St Joseph's Roman Catholic Primary School,London,London,Southwark,Bermondsey and Old Southwark,SE16 4UP,51.49902,-0.06934
St Joseph's Catholic Primary School,London,London,Southwark,Bermondsey and Old Southwark,SE16 2TY,51.495,-0.05327
"Saint Joseph's Catholic Primary School, the Borough",London,London,Southwark,Bermondsey and Old Southwark,SE1 1NJ,51.50275,-0.0932
St Jude's Church of England Primary School,London,London,Southwark,Bermondsey and Old Southwark,SE1 6HA,51.49685,-0.10536
St Mary Magdalene Church of England Primary School,London,London,Southwark,Camberwell and Peckham,SE15 3RA,51.46854,-0.06291
Peter Hills with St Mary's and St Paul's CofE Primary School,London,London,Southwark,Bermondsey and Old Southwark,SE16 5ED,51.50619,-0.04248
St Peter's Church of England Primary School,London,London,Southwark,Camberwell and Peckham,SE17 2HH,51.48616,-0.0933
The Cathedral School of St Saviour and St Mary Overy,London,London,Southwark,Bermondsey and Old Southwark,SE1 1HG,51.5029,-0.09402
St John's Roman Catholic Primary School,London,London,Southwark,Bermondsey and Old Southwark,SE16 6SD,51.50029,-0.0415
St Saviour's and St Olave's Church of England School,London,London,Southwark,Bermondsey and Old Southwark,SE1 4AN,51.49466,-0.08759
St Francesca Cabrini Primary School,London,London,Southwark,Camberwell and Peckham,SE23 3LE,51.44953,-0.05211
St Anthony's Catholic Primary School,London,London,Southwark,Dulwich and West Norwood,SE22 0LA,51.4497,-0.0721
St Joseph's Catholic Junior School,London,London,Southwark,Camberwell and Peckham,SE5 0TS,51.4795,-0.09971
St Joseph's Catholic Infants School,London,London,Southwark,Camberwell and Peckham,SE5 0TS,51.4795,-0.09971
Friars Primary Foundation School,London,London,Southwark,Bermondsey and Old Southwark,SE1 0RF,51.50099,-0.10273
The St Thomas the Apostle College,London,London,Southwark,Camberwell and Peckham,SE15 2EB,51.47123,-0.05658
Notre Dame Roman Catholic Girls' School,London,London,Southwark,Bermondsey and Old Southwark,SE1 6EX,51.49698,-0.10613
Highshore School,London,London,Southwark,Camberwell and Peckham,SE5 0TW,51.47814,-0.10133
Evelina Hospital School,London,London,Southwark,Vauxhall,SE1 7EH,51.49795,-0.1189
Bethlem and Maudsley Hospital School,London,London,Southwark,Beckenham,BR3 3BX,51.37778,-0.02922
Haymerle School,London,London,Southwark,Camberwell and Peckham,SE15 6SY,51.48047,-0.06923
Beormund Primary School,London,London,Southwark,Bermondsey and Old Southwark,SE1 3PS,51.50074,-0.08847
Tuke School,London,London,Southwark,Camberwell and Peckham,SE15 6ER,51.4805,-0.07718
Cherry Garden School,London,London,Southwark,Camberwell and Peckham,SE15 5BB,51.47184,-0.07256
Childrens House Nursery School,London,London,Tower Hamlets,Poplar and Limehouse,E3 3HL,51.52665,-0.01618
Columbia Market Nursery School,London,London,Tower Hamlets,Bethnal Green and Bow,E2 7PG,51.5285,-0.07413
Old Church Nursery School,London,London,Tower Hamlets,Bethnal Green and Bow,E1 0RJ,51.51576,-0.04491
Rachel Keeling Nursery School,London,London,Tower Hamlets,Bethnal Green and Bow,E2 0PS,51.52762,-0.04781
Alice Model Nursery School,London,London,Tower Hamlets,Bethnal Green and Bow,E1 4NQ,51.52138,-0.04632
Harry Roberts Nursery School,London,London,Tower Hamlets,Bethnal Green and Bow,E1 4PZ,51.52095,-0.03777
London East Alternative Provision,London,London,Tower Hamlets,Bethnal Green and Bow,E1 4EE,51.52349,-0.04692
Ben Jonson Primary School,London,London,Tower Hamlets,Bethnal Green and Bow,E1 4PZ,51.52095,-0.03777
Bonner Primary School,London,London,Tower Hamlets,Bethnal Green and Bow,E2 0NF,51.52973,-0.04832
Old Palace Primary School,London,London,Tower Hamlets,Poplar and Limehouse,E3 3BT,51.52639,-0.0124
Canon Barnett Primary School,London,London,Tower Hamlets,Bethnal Green and Bow,E1 7RQ,51.51584,-0.07098
Cayley Primary School,London,London,Tower Hamlets,Bethnal Green and Bow,E14 7NG,51.51615,-0.03839
Blue Gate Fields Junior School,London,London,Tower Hamlets,Poplar and Limehouse,E1 0EH,51.51055,-0.05431
Chisenhale Primary School,London,London,Tower Hamlets,Bethnal Green and Bow,E3 5QY,51.53326,-0.0385
Columbia Primary School,London,London,Tower Hamlets,Bethnal Green and Bow,E2 7RG,51.52933,-0.06918
Cubitt Town Junior School,London,London,Tower Hamlets,Poplar and Limehouse,E14 3NE,51.49532,-0.01188
Cyril Jackson Primary School,London,London,Tower Hamlets,Poplar and Limehouse,E14 8HH,51.51118,-0.02975
Globe Primary School,London,London,Tower Hamlets,Bethnal Green and Bow,E2 0JH,51.52939,-0.05129
Hague Primary School,London,London,Tower Hamlets,Bethnal Green and Bow,E2 0BP,51.52465,-0.0591
Harbinger Primary School,London,London,Tower Hamlets,Poplar and Limehouse,E14 3QP,51.4893,-0.02011
John Scurr Primary School,London,London,Tower Hamlets,Bethnal Green and Bow,E1 4AX,51.52323,-0.051
Lawdale Junior School,London,London,Tower Hamlets,Bethnal Green and Bow,E2 6LS,51.52844,-0.06283
Elizabeth Selby Infants' School,London,London,Tower Hamlets,Bethnal Green and Bow,E2 6PP,51.52866,-0.06291
Marion Richardson Primary School,London,London,Tower Hamlets,Bethnal Green and Bow,E1 0QF,51.51442,-0.04622
Marner Primary School,London,London,Tower Hamlets,Poplar and Limehouse,E3 3LL,51.52292,-0.01237
Mayflower Primary School,London,London,Tower Hamlets,Poplar and Limehouse,E14 6DU,51.51158,-0.02031
Mowlem Primary School,London,London,Tower Hamlets,Bethnal Green and Bow,E2 9HE,51.53381,-0.05528
Blue Gate Fields Infants' School,London,London,Tower Hamlets,Poplar and Limehouse,E1 0EH,51.51055,-0.05431
Olga Primary School,London,London,Tower Hamlets,Bethnal Green and Bow,E3 5DN,51.53072,-0.03667
Redlands Primary School,London,London,Tower Hamlets,Bethnal Green and Bow,E1 3AQ,51.51942,-0.05106
Manorfield Primary School,London,London,Tower Hamlets,Poplar and Limehouse,E14 6QD,51.51825,-0.01326
Stewart Headlam Primary School,London,London,Tower Hamlets,Bethnal Green and Bow,E1 5RE,51.52326,-0.05978
Virginia Primary School,London,London,Tower Hamlets,Bethnal Green and Bow,E2 7NQ,51.52699,-0.07434
Wellington Primary School,London,London,Tower Hamlets,Poplar and Limehouse,E3 4NE,51.52591,-0.02484
Woolmore Primary School,London,London,Tower Hamlets,Poplar and Limehouse,E14 0EW,51.51068,-0.00803
Thomas Buxton Primary School,London,London,Tower Hamlets,Bethnal Green and Bow,E1 5AR,51.52174,-0.06486
Seven Mills Primary School,London,London,Tower Hamlets,Poplar and Limehouse,E14 8LY,51.49837,-0.02361
Cubitt Town Infants' School,London,London,Tower Hamlets,Poplar and Limehouse,E14 3NE,51.49532,-0.01188
Osmani Primary School,London,London,Tower Hamlets,Bethnal Green and Bow,E1 5AD,51.52079,-0.06483
Shapla Primary School,London,London,Tower Hamlets,Poplar and Limehouse,E1 8HY,51.51015,-0.06593
Hermitage Primary School,London,London,Tower Hamlets,Poplar and Limehouse,E1W 2PT,51.50502,-0.06485
Bangabandhu Primary School,London,London,Tower Hamlets,Bethnal Green and Bow,E2 0LB,51.52572,-0.05143
Halley Primary School,London,London,Tower Hamlets,Bethnal Green and Bow,E14 7SS,51.5177,-0.03603
Bigland Green Primary School,London,London,Tower Hamlets,Poplar and Limehouse,E1 2ND,51.51267,-0.05857
Kobi Nazrul Primary School,London,London,Tower Hamlets,Bethnal Green and Bow,E1 1JP,51.5161,-0.06426
Smithy Street Primary School,London,London,Tower Hamlets,Bethnal Green and Bow,E1 3BW,51.51877,-0.05237
William Davis Primary School,London,London,Tower Hamlets,Bethnal Green and Bow,E2 6ET,51.52449,-0.0667
Christ Church CofE School,London,London,Tower Hamlets,Bethnal Green and Bow,E1 6PU,51.5183,-0.07152
Guardian Angels Catholic Primary School,London,London,Tower Hamlets,Bethnal Green and Bow,E3 4RB,51.52462,-0.03694
Stepney Greencoat Church of England Primary School,London,London,Tower Hamlets,Poplar and Limehouse,E14 7TF,51.51393,-0.03178
St Agnes RC Primary School,London,London,Tower Hamlets,Poplar and Limehouse,E3 3ER,51.52734,-0.01868
St Anne's Catholic Primary School,London,London,Tower Hamlets,Bethnal Green and Bow,E1 5AW,51.52112,-0.06614
St Edmund's Catholic School,London,London,Tower Hamlets,Poplar and Limehouse,E14 3RS,51.49216,-0.02422
St John's Church of England Primary School,London,London,Tower Hamlets,Bethnal Green and Bow,E2 9LR,51.53002,-0.05437
St Luke's Church of England Primary School,London,London,Tower Hamlets,Poplar and Limehouse,E14 3EB,51.48959,-0.00551
St Matthias Church of England Primary School,London,London,Tower Hamlets,Bethnal Green and Bow,E2 6DY,51.52398,-0.07046
St Paul with St Luke CofE Primary School,London,London,Tower Hamlets,Poplar and Limehouse,E3 4LA,51.51796,-0.02919
St Paul's Whitechapel Church of England Primary School,London,London,Tower Hamlets,Poplar and Limehouse,E1 8HY,51.51015,-0.06593
St Peter's London Docks CofE Primary School,London,London,Tower Hamlets,Poplar and Limehouse,E1W 3QT,51.50763,-0.05523
St Saviour's Church of England Primary School,London,London,Tower Hamlets,Poplar and Limehouse,E14 6BB,51.51626,-0.01649
English Martyrs Roman Catholic Primary School,London,London,Tower Hamlets,Bethnal Green and Bow,E1 8DJ,51.51276,-0.0709
Bow School,London,London,Tower Hamlets,Poplar and Limehouse,E3 3QW,51.52339,-0.00949
Langdon Park Community School,London,London,Tower Hamlets,Poplar and Limehouse,E14 0RZ,51.51478,-0.01214
Morpeth School,London,London,Tower Hamlets,Bethnal Green and Bow,E2 0PX,51.52678,-0.04849
Oaklands School,London,London,Tower Hamlets,Bethnal Green and Bow,E2 6PR,51.52923,-0.06172
Swanlea School,London,London,Tower Hamlets,Bethnal Green and Bow,E1 5DJ,51.52074,-0.06007
George Green's School,London,London,Tower Hamlets,Poplar and Limehouse,E14 3DW,51.48812,-0.00763
Central Foundation Girls' School,London,London,Tower Hamlets,Bethnal Green and Bow,E3 2AE,51.52681,-0.02832
Sir John Cass Foundation and Redcoat Church of England Secondary School,London,London,Tower Hamlets,Bethnal Green and Bow,E1 0RH,51.51625,-0.04421
Bishop Challoner Girls' School,London,London,Tower Hamlets,Poplar and Limehouse,E1 0LB,51.51356,-0.04974
Raine's Foundation School,London,London,Tower Hamlets,Bethnal Green and Bow,E2 9LY,51.53126,-0.05178
Bowden House School,London,London,Tower Hamlets,Lewes,BN25 2JB,50.78699,0.10645
Phoenix School,London,London,Tower Hamlets,Bethnal Green and Bow,E3 2AD,51.52709,-0.02663
Beatrice Tate School,London,London,Tower Hamlets,Poplar and Limehouse,E3 4PX,51.52375,-0.03044
Balham Nursery School & Children's Centre Services,London,London,Wandsworth,Tooting,SW12 8JL,51.44631,-0.15437
Eastwood Nursery School,London,London,Wandsworth,Putney,SW15 4EU,51.45188,-0.24524
Somerset Nursery School and Children's Centre,London,London,Wandsworth,Battersea,SW11 3ND,51.47569,-0.17526
Francis Barber Pupil Referral Unit,London,London,Wandsworth,Tooting,SW17 8HE,51.42694,-0.16196
Alderbrook Primary School,London,London,Wandsworth,Battersea,SW12 8PP,51.44852,-0.1489
Allfarthing Primary School,London,London,Wandsworth,Battersea,SW18 2LR,51.45421,-0.18619
Beatrix Potter Primary School,London,London,Wandsworth,Tooting,SW18 3ER,51.44396,-0.18229
Brandlehow Primary School,London,London,Wandsworth,Putney,SW15 2ED,51.46137,-0.20741
Broadwater Primary School,London,London,Wandsworth,Tooting,SW17 0DZ,51.43086,-0.17361
Earlsfield Primary School,London,London,Wandsworth,Tooting,SW18 3QQ,51.44143,-0.18594
Falconbrook Primary School,London,London,Wandsworth,Battersea,SW11 2LX,51.46812,-0.17405
Fircroft Primary School,London,London,Wandsworth,Tooting,SW17 7PP,51.43688,-0.16426
Furzedown Primary School,London,London,Wandsworth,Tooting,SW17 9TJ,51.42194,-0.15313
Honeywell Junior School,London,London,Wandsworth,Battersea,SW11 6EF,51.45473,-0.1619
Honeywell Infant School,London,London,Wandsworth,Battersea,SW11 6EF,51.45473,-0.1619
Hotham Primary School,London,London,Wandsworth,Putney,SW15 1PN,51.46423,-0.22119
John Burns Primary School,London,London,Wandsworth,Battersea,SW11 5QR,51.4695,-0.15278
Penwortham Primary School,London,London,Wandsworth,Tooting,SW16 6RJ,51.42239,-0.14587
Ravenstone Primary School,London,London,Wandsworth,Tooting,SW12 9SS,51.44168,-0.15267
Riversdale Primary School,London,London,Wandsworth,Putney,SW18 5JP,51.4466,-0.1991
Sellincourt Primary School,London,London,Wandsworth,Tooting,SW17 9SA,51.42317,-0.16755
Shaftesbury Park Primary School,London,London,Wandsworth,Battersea,SW11 5UW,51.46876,-0.15663
Smallwood Primary School and Language Unit,London,London,Wandsworth,Tooting,SW17 0TW,51.43121,-0.17809
Swaffield Primary School,London,London,Wandsworth,Tooting,SW18 2SA,51.45152,-0.18605
West Hill Primary School,London,London,Wandsworth,Putney,SW18 5ST,51.45557,-0.19903
Sheringdale Primary School,London,London,Wandsworth,Putney,SW18 5TR,51.44691,-0.20366
Southmead Primary School,London,London,Wandsworth,Putney,SW19 6QT,51.44528,-0.2161
Granard Primary School,London,London,Wandsworth,Putney,SW15 6XA,51.45565,-0.23291
Heathmere Primary School,London,London,Wandsworth,Putney,SW15 4LJ,51.44467,-0.24138
Ronald Ross Primary School,London,London,Wandsworth,Putney,SW19 6RY,51.4483,-0.21567
Albemarle Primary School,London,London,Wandsworth,Putney,SW19 6JP,51.44202,-0.2138
"All Saints' CofE Primary School, Putney",London,London,Wandsworth,Putney,SW15 1HL,51.46788,-0.22774
Christ Church CofE Primary School,London,London,Wandsworth,Battersea,SW11 2TH,51.46707,-0.16691
Holy Ghost Catholic Primary School,London,London,Wandsworth,Tooting,SW12 8QJ,51.44788,-0.15634
Our Lady of Victories Catholic Primary School,London,London,Wandsworth,Putney,SW15 1AW,51.4638,-0.2232
Roehampton CofE Primary School,London,London,Wandsworth,Putney,SW15 4AA,51.44826,-0.23753
St Anne's CofE Primary School,London,London,Wandsworth,Battersea,SW18 2RU,51.45621,-0.18915
St Boniface RC Primary School,London,London,Wandsworth,Tooting,SW17 8PP,51.42735,-0.1646
St Faith's CofE Primary School,London,London,Wandsworth,Battersea,SW18 1AE,51.45941,-0.18648
St George's CofE Primary School,London,London,Wandsworth,Battersea,SW8 4JS,51.47717,-0.13933
St Joseph's RC Primary School,London,London,Wandsworth,Battersea,SW15 2QD,51.45919,-0.20046
St Mary's CofE Primary School,London,London,Wandsworth,Putney,SW15 1BA,51.46643,-0.22203
Trinity St Mary's CofE Primary School,London,London,Wandsworth,Tooting,SW12 8DR,51.44256,-0.1553
St Mary's RC Voluntary Aided Primary School,London,London,Wandsworth,Battersea,SW8 4BE,51.47622,-0.14537
St Michael's CofE Primary School,London,London,Wandsworth,Putney,SW18 5SQ,51.45023,-0.20359
"Sacred Heart Catholic Primary School, Roehampton",London,London,Wandsworth,Putney,SW15 5NX,51.45761,-0.24196
Our Lady Queen of Heaven RC School,London,London,Wandsworth,Putney,SW19 6AD,51.44797,-0.22036
St Anselm's Catholic Primary School,London,London,Wandsworth,Tooting,SW17 8BS,51.43568,-0.15756
Ernest Bevin College,London,London,Wandsworth,Tooting,SW17 7DF,51.43759,-0.168
Hillbrook School,London,London,Wandsworth,Tooting,SW17 8SG,51.43246,-0.16092
Oak Lodge School,London,London,Wandsworth,Tooting,SW12 8NA,51.44874,-0.15804
Bradstow School,London,London,Wandsworth,South Thanet,CT10 1BY,51.35282,1.4373
Greenmead School,London,London,Wandsworth,Putney,SW19 6RY,51.4483,-0.21567
Paddock School,London,London,Wandsworth,Putney,SW15 5RT,51.46378,-0.2499
Garratt Park School,London,London,Wandsworth,Tooting,SW18 3TB,51.43754,-0.18488
Tachbrook Nursery School,London,London,Westminster,Cities of London and Westminster,SW1V 3RT,51.48659,-0.13259
Dorothy Gardner Centre,London,London,Westminster,Westminster North,W9 3JY,51.52889,-0.20179
Mary Paterson Nursery School,London,London,Westminster,Westminster North,W9 3DS,51.528,-0.20227
Barrow Hill Junior School,London,London,Westminster,Westminster North,NW8 7AL,51.53279,-0.1691
Edward Wilson Primary School,London,London,Westminster,Westminster North,W2 5TL,51.52168,-0.18916
Essendine Primary School,London,London,Westminster,Westminster North,W9 2LR,51.52805,-0.19505
George Eliot Primary School,London,London,Westminster,Westminster North,NW8 0NH,51.53841,-0.17724
Hallfield Primary School,London,London,Westminster,Westminster North,W2 6JJ,51.51493,-0.18643
Robinsfield Infant School,London,London,Westminster,Westminster North,NW8 6PX,51.53518,-0.17014
Queen's Park Primary School,London,London,Westminster,Westminster North,W10 4DQ,51.52746,-0.20934
All Souls CofE Primary School,London,London,Westminster,Cities of London and Westminster,W1W 7JJ,51.51984,-0.13863
Burdett-Coutts and Townshend Foundation CofE Primary School,London,London,Westminster,Cities of London and Westminster,SW1P 2QQ,51.49511,-0.13502
Hampden Gurney CofE Primary School,London,London,Westminster,Cities of London and Westminster,W1H 5HA,51.51678,-0.16407
Our Lady of Dolours RC Primary School,London,London,Westminster,Westminster North,W2 5SR,51.52148,-0.1913
St Augustine's CofE Primary School,London,London,Westminster,Westminster North,NW6 5XA,51.53453,-0.19158
St Barnabas' CofE Primary School,London,London,Westminster,Cities of London and Westminster,SW1W 8PF,51.49058,-0.15166
St Clement Danes CofE Primary School,London,London,Westminster,Cities of London and Westminster,WC2B 5SU,51.51366,-0.11975
St Edward's Catholic Primary School,London,London,Westminster,Cities of London and Westminster,NW1 6LH,51.52333,-0.1657
St Gabriel's CofE Primary School,London,London,Westminster,Cities of London and Westminster,SW1V 3AG,51.48618,-0.14177
St George's Hanover Square CofE Primary School,London,London,Westminster,Cities of London and Westminster,W1K 2XH,51.50882,-0.15011
Soho Parish CofE Primary School,London,London,Westminster,Cities of London and Westminster,W1D 7LF,51.51174,-0.13439
St James & St John Church of England Primary School,London,London,Westminster,Westminster North,W2 3QD,51.51294,-0.17926
St Joseph's RC Primary School,London,London,Westminster,Westminster North,W9 1DF,51.52741,-0.18223
St Luke's CofE Primary School,London,London,Westminster,Westminster North,W9 3EJ,51.53155,-0.20278
St Mary Magdalene CofE Primary School,London,London,Westminster,Westminster North,W2 5TF,51.52246,-0.18927
St Mary's Bryanston Square CofE School,London,London,Westminster,Cities of London and Westminster,W1H 1DL,51.52042,-0.16302
St. Mary of the Angels Catholic Primary School,London,London,Westminster,Westminster North,W2 5PR,51.51843,-0.1975
"St Matthew's School, Westminster",London,London,Westminster,Cities of London and Westminster,SW1P 2DG,51.4974,-0.13134
St Peter's CofE School,London,London,Westminster,Westminster North,W9 2AN,51.5237,-0.19599
St Peter's Eaton Square CofE Primary School,London,London,Westminster,Cities of London and Westminster,SW1W 0NL,51.49601,-0.14641
St Saviour's CofE Primary School,London,London,Westminster,Westminster North,W9 2JD,51.52415,-0.18824
St Stephen's CofE Primary School,London,London,Westminster,Westminster North,W2 5QH,51.51903,-0.19505
St Vincent's Catholic Primary School,London,London,Westminster,Cities of London and Westminster,W1U 4DF,51.51862,-0.15269
St Vincent de Paul RC Primary School,London,London,Westminster,Cities of London and Westminster,SW1P 1EP,51.49603,-0.14015
Westminster Cathedral RC Primary School,London,London,Westminster,Cities of London and Westminster,SW1V 3SE,51.48805,-0.13194
Christ Church Bentinck CofE Primary School,London,London,Westminster,Westminster North,NW1 5NS,51.52145,-0.16638
St Augustine's CofE High School,London,London,Westminster,Westminster North,NW6 5SN,51.53427,-0.19244
College Park School,London,London,Westminster,Westminster North,W2 4PH,51.51508,-0.1921
Queen Elizabeth II Jubilee School,London,London,Westminster,Westminster North,W9 3LG,51.52539,-0.20228
Dorothy Barley Infants' School,London,London,Barking and Dagenham,Barking,RM8 2LL,51.54636,0.11723
Manor Junior School,London,London,Barking and Dagenham,Barking,IG11 9AG,51.54366,0.10249
Manor Infants' School/Manor Longbridge,London,London,Barking and Dagenham,Barking,IG11 9AG,51.54366,0.10249
Northbury Primary School,London,London,Barking and Dagenham,Barking,IG11 8JA,51.54132,0.0752
Ripple Primary School,London,London,Barking and Dagenham,Barking,IG11 7QS,51.53625,0.08999
Beam Primary School,London,London,Barking and Dagenham,Dagenham and Rainham,RM10 9ED,51.52843,0.16413
Furze Infants' School,London,London,Barking and Dagenham,Dagenham and Rainham,RM6 6ES,51.57142,0.1407
Grafton Primary School,London,London,Barking and Dagenham,Barking,RM8 3EX,51.55838,0.13931
Marks Gate Infants' School,London,London,Barking and Dagenham,Dagenham and Rainham,RM6 5LL,51.58464,0.13703
Marsh Green Primary School,London,London,Barking and Dagenham,Dagenham and Rainham,RM10 9NJ,51.53146,0.15161
Rush Green Primary School,London,London,Barking and Dagenham,Dagenham and Rainham,RM7 0RL,51.56312,0.17671
The Leys Primary School,London,London,Barking and Dagenham,Dagenham and Rainham,RM10 9YR,51.53596,0.16865
Warren Junior School,London,London,Barking and Dagenham,Dagenham and Rainham,RM6 6DA,51.57509,0.14266
Thomas Arnold Primary School,London,London,Barking and Dagenham,Dagenham and Rainham,RM9 6NH,51.53692,0.14502
Valence Primary School,London,London,Barking and Dagenham,Barking,RM8 3AR,51.55822,0.13225
Village Infants' School,London,London,Barking and Dagenham,Dagenham and Rainham,RM10 9JS,51.53854,0.15252
Marks Gate Junior School,London,London,Barking and Dagenham,Dagenham and Rainham,RM6 5NJ,51.58541,0.13587
William Bellamy Primary School,London,London,Barking and Dagenham,Dagenham and Rainham,RM10 7HX,51.55822,0.15454
Parsloes Primary School,London,London,Barking and Dagenham,Barking,RM9 5RH,51.54283,0.14495
Five Elms Primary School,London,London,Barking and Dagenham,Dagenham and Rainham,RM9 5TB,51.55509,0.14536
Henry Green Primary School,London,London,Barking and Dagenham,Barking,RM8 1UR,51.56184,0.12763
Roding Primary School,London,London,Barking and Dagenham,Barking,RM8 2XS,51.54935,0.12684
Becontree Primary School,London,London,Barking and Dagenham,Barking,RM8 2QR,51.55582,0.11797
John Perry Primary School,London,London,Barking and Dagenham,Dagenham and Rainham,RM10 8UR,51.54142,0.17135
William Ford CofE Junior School,London,London,Barking and Dagenham,Dagenham and Rainham,RM10 9JS,51.53854,0.15252
St Joseph's Catholic Primary School,London,London,Barking and Dagenham,Barking,IG11 7AR,51.53439,0.07708
St Joseph's Catholic Primary School,London,London,Barking and Dagenham,Dagenham and Rainham,RM9 5UL,51.55236,0.1439
St Peter's Catholic Primary School,London,London,Barking and Dagenham,Barking,RM9 6UU,51.53189,0.14438
The St Teresa Catholic Primary School,London,London,Barking and Dagenham,Barking,RM8 2XJ,51.55067,0.12423
St Vincent's Catholic Primary School,London,London,Barking and Dagenham,Barking,RM8 2JN,51.5599,0.12264
"Barking Abbey School, A Specialist Sports and Humanities College",London,London,Barking and Dagenham,Barking,IG11 9AG,51.54366,0.10249
Eastbrook School,London,London,Barking and Dagenham,Dagenham and Rainham,RM10 7UR,51.55147,0.16372
Eastbury Community School,London,London,Barking and Dagenham,Barking,IG11 9UW,51.54252,0.09012
Robert Clack School,London,London,Barking and Dagenham,Dagenham and Rainham,RM8 1JU,51.56268,0.15395
All Saints Catholic School and Technology College,London,London,Barking and Dagenham,Dagenham and Rainham,RM8 1JT,51.56282,0.15131
Brookhill Nursery School,London,London,Barnet,Chipping Barnet,EN4 8SD,51.64539,-0.16533
Hampden Way Nursery School,London,London,Barnet,Chipping Barnet,N14 5DJ,51.63092,-0.14194
Moss Hall Nursery School,London,London,Barnet,Finchley and Golders Green,N3 1NR,51.61066,-0.18651
St Margaret's Nursery School,London,London,Barnet,Chipping Barnet,EN4 9NT,51.64939,-0.16746
Pavilion Study Centre,London,London,Barnet,Chipping Barnet,N20 9DX,51.63389,-0.1728
Barnfield Primary School,London,London,Barnet,Hendon,HA8 0DA,51.60103,-0.26466
Bell Lane Primary School,London,London,Barnet,Hendon,NW4 2AS,51.58707,-0.21571
Brookland Junior School,London,London,Barnet,Finchley and Golders Green,NW11 6EJ,51.58993,-0.18805
Brookland Infant and Nursery School,London,London,Barnet,Finchley and Golders Green,NW11 6EJ,51.58993,-0.18805
Brunswick Park Primary and Nursery School,London,London,Barnet,Chipping Barnet,N14 5DU,51.63087,-0.14758
Childs Hill School,London,London,Barnet,Finchley and Golders Green,NW2 1SL,51.56226,-0.20692
Church Hill School,London,London,Barnet,Chipping Barnet,EN4 8NN,51.63527,-0.15926
Colindale Primary School,London,London,Barnet,Hendon,NW9 6DT,51.59018,-0.24651
Coppetts Wood Primary School,London,London,Barnet,Chipping Barnet,N10 1JS,51.60247,-0.15305
Courtland School,London,London,Barnet,Hendon,NW7 3BG,51.62721,-0.2529
Cromer Road Primary School,London,London,Barnet,Chipping Barnet,EN5 5HT,51.65368,-0.17729
Deansbrook Infant School,London,London,Barnet,Hendon,NW7 3ED,51.61264,-0.26203
Dollis Primary School,London,London,Barnet,Hendon,NW7 2BU,51.60868,-0.22431
Edgware Primary School,London,London,Barnet,Hendon,HA8 9AB,51.60915,-0.27381
Fairway Primary School and Children's Centre,London,London,Barnet,Hendon,NW7 3HS,51.62739,-0.25642
Foulds School,London,London,Barnet,Chipping Barnet,EN5 4NR,51.65676,-0.21171
Frith Manor Primary School,London,London,Barnet,Hendon,N12 7BN,51.6146,-0.203
Garden Suburb Junior School,London,London,Barnet,Finchley and Golders Green,NW11 6XU,51.58551,-0.19852
Garden Suburb Infant School,London,London,Barnet,Finchley and Golders Green,NW11 6XU,51.58551,-0.19852
Goldbeaters Primary School,London,London,Barnet,Hendon,HA8 0HA,51.60406,-0.2573
Hollickwood Primary School,London,London,Barnet,Chipping Barnet,N10 2NL,51.60457,-0.14386
Holly Park Primary School,London,London,Barnet,Chipping Barnet,N11 3HG,51.61691,-0.15126
Livingstone Primary and Nursery School,London,London,Barnet,Chipping Barnet,EN4 9BU,51.65462,-0.16711
Manorside Primary School,London,London,Barnet,Finchley and Golders Green,N3 2AB,51.60089,-0.1805
Monkfrith Primary School,London,London,Barnet,Chipping Barnet,N14 5NG,51.63676,-0.14633
Moss Hall Junior School,London,London,Barnet,Finchley and Golders Green,N3 1NR,51.61066,-0.18651
Moss Hall Infant School,London,London,Barnet,Finchley and Golders Green,N12 8PE,51.60982,-0.18386
Northside Primary School,London,London,Barnet,Finchley and Golders Green,N12 8JP,51.61598,-0.17954
Woodridge Primary School,London,London,Barnet,Chipping Barnet,N12 7HE,51.62392,-0.1937
Tudor Primary School,London,London,Barnet,Finchley and Golders Green,N3 2AG,51.6006,-0.17839
Underhill School,London,London,Barnet,Chipping Barnet,EN5 2LZ,51.645,-0.20722
Whitings Hill Primary School,London,London,Barnet,Chipping Barnet,EN5 2QY,51.64617,-0.21699
Chalgrove Primary School,London,London,Barnet,Finchley and Golders Green,N3 3PL,51.59252,-0.20577
Sunnyfields Primary School,London,London,Barnet,Hendon,NW4 4JH,51.59153,-0.23231
Queenswell Infant & Nursery School,London,London,Barnet,Chipping Barnet,N20 0NQ,51.62742,-0.17018
Queenswell Junior School,London,London,Barnet,Chipping Barnet,N20 0NQ,51.62742,-0.17018
Danegrove Primary School,London,London,Barnet,Chipping Barnet,EN4 8UD,51.64361,-0.15761
All Saints' CofE Primary School NW2,London,London,Barnet,Finchley and Golders Green,NW2 2TH,51.56213,-0.19995
Christ Church Primary School,London,London,Barnet,Chipping Barnet,EN5 4NS,51.65767,-0.2133
Holy Trinity CofE Primary School,London,London,Barnet,Finchley and Golders Green,N2 8GA,51.59144,-0.16924
Monken Hadley CofE Primary School,London,London,Barnet,Chipping Barnet,EN4 0NJ,51.66346,-0.18779
St John's CofE Junior Mixed and Infant School,London,London,Barnet,Chipping Barnet,N11 3LB,51.61657,-0.15382
St John's CofE Primary School,London,London,Barnet,Chipping Barnet,N20 0PL,51.62655,-0.17833
St Mary's CofE Primary School,London,London,Barnet,Finchley and Golders Green,N3 1BT,51.6036,-0.20022
"St Mary's CofE Primary School, East Barnet",London,London,Barnet,Chipping Barnet,EN4 8SR,51.64097,-0.16144
St Paul's CofE Primary School N11,London,London,Barnet,Chipping Barnet,N11 1NQ,51.6163,-0.14423
St Paul's CofE Primary School NW7,London,London,Barnet,Hendon,NW7 1QU,51.62056,-0.23139
"St Andrew's CofE Voluntary Aided Primary School, Totteridge",London,London,Barnet,Chipping Barnet,N20 8NX,51.6299,-0.19644
Trent CofE Primary School,London,London,Barnet,Chipping Barnet,EN4 9JH,51.65044,-0.15317
All Saints' CofE Primary School N20,London,London,Barnet,Chipping Barnet,N20 9EZ,51.62948,-0.16832
The Annunciation Catholic Infant School,London,London,Barnet,Hendon,HA8 0HQ,51.60275,-0.26015
Our Lady of Lourdes RC School,London,London,Barnet,Finchley and Golders Green,N12 0JP,51.60498,-0.17806
St Agnes RC School,London,London,Barnet,Finchley and Golders Green,NW2 1RG,51.56049,-0.2109
St Catherine's RC School,London,London,Barnet,Chipping Barnet,EN5 2ED,51.64882,-0.19472
St Vincent's Catholic Primary School,London,London,Barnet,Hendon,NW7 1EJ,51.61711,-0.22343
St Theresa's Catholic Primary School,London,London,Barnet,Finchley and Golders Green,N3 2TD,51.59459,-0.18808
St Joseph's Catholic Primary School,London,London,Barnet,Hendon,NW4 4TY,51.58725,-0.23174
Sacred Heart Roman Catholic Primary School,London,London,Barnet,Chipping Barnet,N20 9JU,51.63018,-0.16357
Blessed Dominic Catholic Primary School,London,London,Barnet,Hendon,NW9 5FN,51.60091,-0.25039
Rosh Pinah Primary School,London,London,Barnet,Hendon,HA8 8TE,51.62654,-0.27039
Menorah Primary School,London,London,Barnet,Finchley and Golders Green,NW11 9SP,51.57448,-0.2069
The Annunciation RC Junior School,London,London,Barnet,Hendon,HA8 9HQ,51.61187,-0.25825
Friern Barnet School,London,London,Barnet,Chipping Barnet,N11 3LS,51.61608,-0.1547
Osidge Primary School,London,London,Barnet,Chipping Barnet,N14 5HD,51.63433,-0.13433
St Michael's Catholic Grammar School,London,London,Barnet,Finchley and Golders Green,N12 7NJ,51.61441,-0.18078
Finchley Catholic High School,London,London,Barnet,Chipping Barnet,N12 8TA,51.62221,-0.18164
St James' Catholic High School,London,London,Barnet,Hendon,NW9 5PE,51.60082,-0.24096
Mathilda Marks-Kennedy Jewish Primary School,London,London,Barnet,Hendon,NW7 3RT,51.61592,-0.25595
Northway School,London,London,Barnet,Hendon,NW7 3HS,51.62739,-0.25642
Oakleigh School & Acorn Assessment Centre,London,London,Barnet,Chipping Barnet,N20 0DH,51.62521,-0.15886
Mapledown School,London,London,Barnet,Finchley and Golders Green,NW2 1TR,51.57342,-0.21914
Crook Log Primary School,London,London,Bexley,Bexleyheath and Crayford,DA6 8EQ,51.45896,0.12721
Danson Primary School,London,London,Bexley,Bexleyheath and Crayford,DA16 2BH,51.45738,0.10879
Hook Lane Primary School,London,London,Bexley,Old Bexley and Sidcup,DA16 2ET,51.46181,0.10267
Upton Primary School,London,London,Bexley,Bexleyheath and Crayford,DA5 1HH,51.44938,0.135
Birkbeck Primary School,London,London,Bexley,Old Bexley and Sidcup,DA14 4ED,51.43193,0.1058
Longlands Primary School,London,London,Bexley,Old Bexley and Sidcup,DA15 7JG,51.43079,0.09096
Dulverton Primary School,London,London,Bexley,Old Bexley and Sidcup,SE9 3RH,51.43549,0.08096
Parkway Primary School,London,London,Bexley,Erith and Thamesmead,DA18 4DP,51.49356,0.13461
Belvedere Infant School,London,London,Bexley,Erith and Thamesmead,DA17 6AA,51.491,0.15966
Foster's Primary School,London,London,Bexley,Bexleyheath and Crayford,DA16 1PN,51.4631,0.12156
St Stephen's Catholic Primary School,London,London,Bexley,Old Bexley and Sidcup,DA16 3QG,51.46415,0.10402
Our Lady of the Rosary Catholic Primary School,London,London,Bexley,Old Bexley and Sidcup,DA15 8QW,51.44793,0.09292
St Joseph's Catholic Primary School,London,London,Bexley,Bexleyheath and Crayford,DA1 4DZ,51.45395,0.172
St Fidelis Catholic Primary School,London,London,Bexley,Erith and Thamesmead,DA8 3HQ,51.47627,0.16285
St Thomas More Catholic Primary School,London,London,Bexley,Bexleyheath and Crayford,DA7 4PH,51.46678,0.13928
St John Fisher Catholic Primary School,London,London,Bexley,Erith and Thamesmead,DA18 4BA,51.49502,0.13215
St Peter Chanel Catholic Primary School,London,London,Bexley,Old Bexley and Sidcup,DA14 5ED,51.42093,0.11792
Marlborough School,London,London,Bexley,Old Bexley and Sidcup,DA15 9DP,51.44153,0.10332
Curzon Crescent Nursery School,London,London,Brent,Brent Central,NW10 9SD,51.54508,-0.25003
Fawood Children's Centre,London,London,Brent,Brent Central,NW10 8RF,51.54344,-0.26262
College Green School and Services,London,London,Brent,Hampstead and Kilburn,NW10 3PH,51.53692,-0.22729
Granville Plus Nursery School,London,London,Brent,Hampstead and Kilburn,NW6 5RA,51.53273,-0.19785
Anson Primary School,London,London,Brent,Brent Central,NW2 4AB,51.55387,-0.21989
Brentfield Primary School,London,London,Brent,Brent Central,NW10 0SL,51.54702,-0.26377
Byron Court Primary School,London,London,Brent,Brent North,HA0 3SF,51.56924,-0.31238
Carlton Vale Infant School,London,London,Brent,Hampstead and Kilburn,NW6 5PX,51.53207,-0.20098
Harlesden Primary School,London,London,Brent,Brent Central,NW10 8UT,51.53686,-0.25398
Mount Stewart Junior School,London,London,Brent,Brent North,HA3 0JX,51.57814,-0.30083
Mount Stewart Infant School,London,London,Brent,Brent North,HA3 0JX,51.57814,-0.30083
Uxendon Manor Primary School,London,London,Brent,Brent North,HA3 0UX,51.58337,-0.29797
Kingsbury Green Primary School,London,London,Brent,Brent North,NW9 9ND,51.58431,-0.27048
Leopold Primary School,London,London,Brent,Brent Central,NW10 9UR,51.54458,-0.24723
Lyon Park Primary School,London,London,Brent,Brent North,HA0 4HH,51.54395,-0.28849
Malorees Infant School,London,London,Brent,Hampstead and Kilburn,NW6 7PB,51.54156,-0.21475
Northview Junior and Infant School,London,London,Brent,Brent Central,NW10 1RD,51.55549,-0.24673
Park Lane Primary School,London,London,Brent,Brent North,HA9 7RY,51.55588,-0.29384
Preston Park Primary School,London,London,Brent,Brent North,HA9 8RJ,51.57195,-0.30062
Roe Green Junior School,London,London,Brent,Brent North,NW9 9JL,51.58997,-0.27247
Roe Green Infant School,London,London,Brent,Brent North,NW9 9JL,51.58997,-0.27247
Barham Primary School,London,London,Brent,Brent North,HA0 4RQ,51.54889,-0.30525
Wykeham Primary School,London,London,Brent,Brent Central,NW10 0EX,51.56246,-0.25454
Elsley Primary School,London,London,Brent,Brent North,HA9 6HT,51.54902,-0.28705
Donnington Primary School,London,London,Brent,Brent Central,NW10 3TL,51.54163,-0.23383
The Stonebridge School,London,London,Brent,Brent Central,NW10 8NG,51.54067,-0.26364
Newfield Primary School,London,London,Brent,Brent Central,NW10 3UD,51.54232,-0.24316
Mitchell Brook Primary School,London,London,Brent,Brent Central,NW10 9BX,51.54739,-0.25508
Chalkhill Primary School,London,London,Brent,Brent North,HA9 9YP,51.56201,-0.27015
Salusbury Primary School,London,London,Brent,Hampstead and Kilburn,NW6 6RG,51.5377,-0.20657
Oliver Goldsmith Primary School,London,London,Brent,Brent North,NW9 0BD,51.58325,-0.2587
Mora Primary School,London,London,Brent,Brent Central,NW2 6TD,51.5589,-0.22502
Fryent Primary School,London,London,Brent,Brent North,NW9 8JD,51.57781,-0.26312
Christ Church CofE Primary School,London,London,Brent,Hampstead and Kilburn,NW6 7TE,51.54091,-0.2041
John Keble CofE Primary School,London,London,Brent,Brent Central,NW10 4DR,51.5379,-0.24718
Princess Frederica CofE Primary School,London,London,Brent,Hampstead and Kilburn,NW10 5TP,51.533,-0.22493
St Mary's CofE Primary School,London,London,Brent,Brent Central,NW10 9JA,51.54837,-0.25211
Our Lady of Grace Catholic Junior School,London,London,Brent,Brent Central,NW2 6HS,51.5615,-0.2331
St Joseph RC Junior School,London,London,Brent,Brent North,HA9 6BE,51.55236,-0.28666
St Mary Magdalen's Catholic Junior School,London,London,Brent,Brent Central,NW2 5BB,51.54835,-0.22902
St Robert Southwell RC Primary School,London,London,Brent,Brent North,NW9 8YD,51.5825,-0.26695
Convent of Jesus and Mary RC Infant School,London,London,Brent,Brent Central,NW2 5AN,51.54838,-0.22676
Our Lady of Lourdes RC Primary School,London,London,Brent,Brent Central,NW10 8PP,51.54079,-0.26489
St Joseph's RC Infant School,London,London,Brent,Brent North,HA9 6TA,51.55175,-0.28787
Our Lady of Grace RC Infant and Nursery School,London,London,Brent,Brent Central,NW2 6EU,51.56338,-0.22593
St Margaret Clitherow RC Primary School,London,London,Brent,Brent Central,NW10 0BG,51.56176,-0.26092
Sinai Jewish Primary School,London,London,Brent,Brent North,HA3 9UD,51.57949,-0.2817
Malorees Junior School,London,London,Brent,Hampstead and Kilburn,NW6 7PB,51.54156,-0.21475
St Joseph's Roman Catholic Primary School,London,London,Brent,Brent Central,NW10 9LS,51.54426,-0.2509
The Kilburn Park School Foundation,London,London,Brent,Hampstead and Kilburn,NW6 5RG,51.53221,-0.19969
Newman Catholic College,London,London,Brent,Brent Central,NW10 3RN,51.53758,-0.23923
Islamia Primary School,London,London,Brent,Hampstead and Kilburn,NW6 6PE,51.53961,-0.20793
Phoenix Arch School,London,London,Brent,Brent Central,NW10 0NQ,51.55358,-0.26284
Southborough Primary School,London,London,Bromley,Beckenham,BR2 8AA,51.38987,0.05678
Downe Primary School,London,London,Bromley,Orpington,BR6 7JN,51.33655,0.05498
Edgebury Primary School,London,London,Bromley,Bromley and Chislehurst,BR7 6BL,51.42367,0.0715
Poverest Primary School,London,London,Bromley,Bromley and Chislehurst,BR5 2JD,51.39119,0.09717
St Olave's and St Saviour's Grammar School,London,London,Bromley,Orpington,BR6 9SH,51.36685,0.10405
Marjorie McClure School,London,London,Bromley,Bromley and Chislehurst,BR7 5PW,51.40663,0.07328
Crosfield Nursery School,London,London,Croydon,Croydon Central,SE25 5BD,51.39383,-0.07189
Purley Nursery School,London,London,Croydon,Croydon South,CR8 2NE,51.34112,-0.11476
Tunstall Nursery School,London,London,Croydon,Croydon Central,CR0 6TY,51.37836,-0.08389
Saffron Valley Collegiate,London,London,Croydon,Croydon Central,CR0 1QH,51.36828,-0.09901
Beulah Junior School,London,London,Croydon,Croydon North,CR7 8JF,51.40394,-0.0999
Elmwood Junior School,London,London,Croydon,Croydon North,CR0 2PL,51.38734,-0.10562
Elmwood Infant School,London,London,Croydon,Croydon North,CR0 2PL,51.38734,-0.10562
Howard Primary School,London,London,Croydon,Croydon South,CR0 1DT,51.36487,-0.10159
Purley Oaks Primary School,London,London,Croydon,Croydon South,CR2 0PR,51.35236,-0.0957
Winterbourne Junior Girls' School,London,London,Croydon,Croydon North,CR7 7QT,51.39928,-0.11391
Winterbourne Nursery and Infants' School,London,London,Croydon,Croydon North,CR7 7QT,51.39928,-0.11391
Kenley Primary School,London,London,Croydon,Croydon South,CR3 0EX,51.31502,-0.08631
Beaumont Primary School,London,London,Croydon,Croydon South,CR8 4DN,51.32577,-0.12026
Gresham Primary School,London,London,Croydon,Croydon South,CR2 9EA,51.33481,-0.07774
Smitham Primary School,London,London,Croydon,Croydon South,CR5 3DE,51.31486,-0.15128
The Hayes Primary School,London,London,Croydon,Croydon South,CR8 5JN,51.31733,-0.10875
Orchard Way Primary School,London,London,Croydon,Croydon Central,CR0 7NJ,51.38452,-0.0403
Forestdale Primary School,London,London,Croydon,Croydon Central,CR0 9JE,51.34851,-0.04096
Heavers Farm Primary School,London,London,Croydon,Croydon North,SE25 6LT,51.39451,-0.08267
Downsview Primary and Nursery School,London,London,Croydon,Croydon North,SE19 3XE,51.41448,-0.10205
Park Hill Infant School,London,London,Croydon,Croydon Central,CR0 5NS,51.36876,-0.0893
Greenvale Primary School,London,London,Croydon,Croydon South,CR2 8PR,51.33956,-0.05276
Rockmount Primary School,London,London,Croydon,Croydon North,SE19 3ST,51.41939,-0.08982
Norbury Manor Primary School,London,London,Croydon,Croydon North,SW16 5QR,51.41007,-0.12812
All Saints CofE Primary School,London,London,Croydon,Croydon North,SE19 3LG,51.41283,-0.08701
St John's CofE Primary School,London,London,Croydon,Croydon Central,CR0 5EL,51.37271,-0.0496
The Minster Junior School,London,London,Croydon,Croydon South,CR0 4BH,51.36979,-0.10905
The Minster Nursery and Infant School,London,London,Croydon,Croydon South,CR0 4BH,51.36979,-0.10905
Coulsdon CofE Primary School,London,London,Croydon,Croydon South,CR5 1ED,51.3081,-0.12368
Christ Church CofE Primary School (Purley),London,London,Croydon,Croydon South,CR8 2QE,51.34376,-0.11022
St Joseph's RC Junior School,London,London,Croydon,Croydon North,SE19 3NU,51.42182,-0.10005
Margaret Roper Catholic Primary School,London,London,Croydon,Croydon South,CR8 2XP,51.34406,-0.12017
Regina Coeli Catholic Primary School,London,London,Croydon,Croydon South,CR2 6DF,51.35589,-0.10611
St Joseph's RC Infant School,London,London,Croydon,Croydon North,SE19 3NX,51.42238,-0.09963
Archbishop Tenison's CofE High School,London,London,Croydon,Croydon Central,CR0 5JQ,51.3691,-0.08374
St Andrew's CofE School,London,London,Croydon,Croydon South,CR0 4BH,51.36979,-0.10905
St Mary's Catholic High School,London,London,Croydon,Croydon Central,CR9 2EE,51.38061,-0.09802
Selsdon Primary and Nursery School,London,London,Croydon,Croydon South,CR2 8LQ,51.34695,-0.05589
Thomas More Catholic School,London,London,Croydon,Croydon South,CR8 2XP,51.34406,-0.12017
Coloma Convent Girls' School,London,London,Croydon,Croydon Central,CR9 5AS,51.36932,-0.05291
BRIT School for Performing Arts and Technology,London,London,Croydon,Croydon North,CR0 2HN,51.39039,-0.09261
Bensham Manor School,London,London,Croydon,Croydon North,CR7 7BN,51.39561,-0.09971
St Giles School,London,London,Croydon,Croydon South,CR2 6DF,51.35589,-0.10611
St Nicholas School,London,London,Croydon,Croydon South,CR8 4DS,51.32906,-0.1192
Red Gates School,London,London,Croydon,Croydon Central,CR2 8HD,51.35098,-0.04688
Priory School,London,London,Croydon,Croydon North,SE19 3QN,51.42024,-0.09468
Maples Children's Centre,London,London,Ealing,Ealing Central and Acton,W3 7LL,51.50929,-0.26181
Grove House Nursery School & Children's Centre,London,London,Ealing,"Ealing, Southall",UB1 2JG,51.5125,-0.37242
South Acton Childrens Centre,London,London,Ealing,Ealing Central and Acton,W3 8RX,51.50382,-0.27343
Greenfields Nursery School and Children's Centre,London,London,Ealing,"Ealing, Southall",UB2 5PF,51.49766,-0.3873
Berrymede Junior School,London,London,Ealing,Ealing Central and Acton,W3 8SJ,51.50232,-0.27262
Berrymede Infant School,London,London,Ealing,Ealing Central and Acton,W3 8RN,51.50284,-0.27297
East Acton Primary School,London,London,Ealing,Ealing Central and Acton,W3 7HA,51.51141,-0.25613
Oldfield Primary School,London,London,Ealing,Ealing North,UB6 8PR,51.53751,-0.34826
North Ealing Primary School,London,London,Ealing,Ealing North,W5 1RP,51.52591,-0.31803
St John's Primary School,London,London,Ealing,"Ealing, Southall",W13 0SE,51.51192,-0.32309
St Mark's Primary School,London,London,Ealing,"Ealing, Southall",W7 2NR,51.50759,-0.34182
West Twyford Primary School,London,London,Ealing,Ealing Central and Acton,NW10 7DN,51.53411,-0.28268
West Acton Primary School,London,London,Ealing,Ealing Central and Acton,W3 0JL,51.51748,-0.27975
Mayfield Primary School,London,London,Ealing,Ealing North,W7 3RT,51.52045,-0.34744
Beaconsfield Primary and Nursery School,London,London,Ealing,"Ealing, Southall",UB1 1DR,51.50772,-0.38301
Coston Primary School,London,London,Ealing,Ealing North,UB6 9JU,51.53438,-0.35153
Downe Manor Primary School,London,London,Ealing,Ealing North,UB5 6NW,51.53419,-0.40358
Drayton Green Primary School,London,London,Ealing,Ealing North,W13 0LA,51.51535,-0.32341
North Primary School,London,London,Ealing,"Ealing, Southall",UB1 2JE,51.51323,-0.37415
Ravenor Primary School,London,London,Ealing,Ealing North,UB6 9TT,51.53229,-0.36485
Selborne Primary School,London,London,Ealing,Ealing North,UB6 8JD,51.53718,-0.33542
Hambrough Primary School,London,London,Ealing,"Ealing, Southall",UB1 1SF,51.50827,-0.37824
Hobbayne Primary School,London,London,Ealing,Ealing North,W7 1HA,51.51609,-0.33741
John Perryn Primary School,London,London,Ealing,Ealing Central and Acton,W3 7PD,51.51913,-0.25458
Southfield Primary School,London,London,Ealing,Ealing Central and Acton,W4 1BD,51.50132,-0.25672
Allenby Primary School,London,London,Ealing,"Ealing, Southall",UB1 2HX,51.52012,-0.36539
Blair Peach Primary School,London,London,Ealing,"Ealing, Southall",UB1 1DR,51.50772,-0.38301
Clifton Primary School,London,London,Ealing,"Ealing, Southall",UB2 5QP,51.49841,-0.38207
Dairy Meadow Primary School,London,London,Ealing,"Ealing, Southall",UB2 4RP,51.50195,-0.37316
Derwentwater Primary School,London,London,Ealing,Ealing Central and Acton,W3 6SA,51.50999,-0.26884
Durdans Park Primary School,London,London,Ealing,"Ealing, Southall",UB1 2PQ,51.52337,-0.37607
Fielding Primary School,London,London,Ealing,"Ealing, Southall",W13 9TE,51.5014,-0.32089
Gifford Primary School,London,London,Ealing,Ealing North,UB5 6BU,51.53596,-0.376
Greenwood Primary School,London,London,Ealing,Ealing North,UB5 4QG,51.55416,-0.35032
Havelock Primary School and Nursery,London,London,Ealing,"Ealing, Southall",UB2 4PA,51.50129,-0.37497
Horsenden Primary School,London,London,Ealing,Ealing North,UB6 0PB,51.55042,-0.33521
Willow Tree Primary School,London,London,Ealing,Ealing North,UB5 5FE,51.5502,-0.37799
Lady Margaret Primary School,London,London,Ealing,"Ealing, Southall",UB1 2NH,51.52403,-0.3741
Little Ealing Primary School,London,London,Ealing,"Ealing, Southall",W5 4EA,51.49804,-0.30838
Oaklands Primary School,London,London,Ealing,"Ealing, Southall",W7 2DP,51.50459,-0.33219
Perivale Primary School,London,London,Ealing,Ealing North,UB6 7AP,51.53683,-0.31016
Stanhope Primary School,London,London,Ealing,Ealing North,UB6 9EG,51.52721,-0.35548
Viking Primary School,London,London,Ealing,Ealing North,UB5 6HW,51.53308,-0.39265
Wolf Fields Primary School,London,London,Ealing,"Ealing, Southall",UB2 4JS,51.4968,-0.37573
Featherstone Primary and Nursery School,London,London,Ealing,"Ealing, Southall",UB2 5JT,51.49813,-0.39414
Three Bridges Primary School,London,London,Ealing,"Ealing, Southall",UB2 4HT,51.50053,-0.36324
Montpelier Primary School,London,London,Ealing,Ealing Central and Acton,W5 2QT,51.52333,-0.30098
Tudor Primary School,London,London,Ealing,"Ealing, Southall",UB1 1NX,51.51359,-0.38456
Vicar's Green Primary School,London,London,Ealing,Ealing North,HA0 1DP,51.53512,-0.30937
Mount Carmel Catholic Primary School,London,London,Ealing,"Ealing, Southall",W5 4EA,51.49804,-0.30838
Our Lady of the Visitation Catholic Primary School,London,London,Ealing,Ealing North,UB6 9AN,51.52347,-0.35176
St John Fisher Catholic Primary School,London,London,Ealing,Ealing North,UB6 7AF,51.53822,-0.31173
St Anselm's Catholic Primary School,London,London,Ealing,"Ealing, Southall",UB2 4BH,51.50223,-0.38018
St Gregory's Catholic Primary School,London,London,Ealing,Ealing Central and Acton,W5 1SL,51.5241,-0.30782
St Joseph's Catholic Primary School,London,London,Ealing,"Ealing, Southall",W7 3HU,51.51059,-0.3378
St Raphael's Catholic Primary School,London,London,Ealing,Ealing North,UB5 6NL,51.53594,-0.40277
St Vincent's Catholic Primary School,London,London,Ealing,Ealing Central and Acton,W3 9JR,51.51249,-0.27345
Edward Betham Church of England Primary School,London,London,Ealing,Ealing North,UB6 9JU,51.53438,-0.35153
Villiers High School,London,London,Ealing,"Ealing, Southall",UB1 3BT,51.51016,-0.37334
The Cardinal Wiseman Catholic School,London,London,Ealing,Ealing North,UB6 9AW,51.52527,-0.35212
Wood End Infant School,London,London,Ealing,Ealing North,UB5 4LB,51.55283,-0.35054
Brentside High School,London,London,Ealing,Ealing North,W7 1JJ,51.52469,-0.34097
Greenford High School,London,London,Ealing,Ealing North,UB1 2GU,51.53102,-0.37041
The Ellen Wilkinson School for Girls,London,London,Ealing,Ealing Central and Acton,W3 0HW,51.51706,-0.2865
Northolt High School,London,London,Ealing,Ealing North,UB5 4HP,51.55169,-0.37506
Belvue School,London,London,Ealing,Ealing North,UB5 6AG,51.54272,-0.36493
Castlebar School,London,London,Ealing,Ealing North,W13 0DH,51.52278,-0.32885
Mandeville School,London,London,Ealing,Ealing North,UB6 0PA,51.55078,-0.33596
John Chilton School,London,London,Ealing,Ealing North,UB5 5LD,51.54422,-0.38451
Springhallow School,London,London,Ealing,Ealing North,W13 0JG,51.51744,-0.32813
St Ann's School,London,London,Ealing,"Ealing, Southall",W7 3JP,51.51036,-0.33906
Orchardside School,London,London,Enfield,Enfield North,EN1 4RL,51.6782,-0.05669
Capel Manor Primary School,London,London,Enfield,Enfield North,EN1 4RL,51.6782,-0.05669
Carterhatch Infant School,London,London,Enfield,Enfield North,EN1 4JY,51.66125,-0.05673
Chase Side Primary School,London,London,Enfield,Enfield North,EN2 6NS,51.65915,-0.09008
Eldon Primary School,London,London,Enfield,Edmonton,N9 8LG,51.62911,-0.04977
Firs Farm Primary School,London,London,Enfield,Edmonton,N13 5QP,51.62402,-0.08431
Garfield Primary School,London,London,Enfield,"Enfield, Southgate",N11 1BH,51.614,-0.13693
George Spicer Primary School,London,London,Enfield,Enfield North,EN1 1YF,51.65122,-0.06776
Hadley Wood Primary School,London,London,Enfield,"Enfield, Southgate",EN4 0HT,51.67003,-0.17087
Hazelwood Junior School,London,London,Enfield,"Enfield, Southgate",N13 5HE,51.61778,-0.10205
Hazelwood Infant School,London,London,Enfield,"Enfield, Southgate",N13 5HE,51.61778,-0.10205
Honilands Primary School,London,London,Enfield,Enfield North,EN1 4RE,51.67818,-0.04969
Merryhills Primary School,London,London,Enfield,Enfield North,EN2 7RE,51.65173,-0.10845
Prince of Wales Primary School,London,London,Enfield,Enfield North,EN3 6HG,51.66978,-0.02246
The Raglan Junior School,London,London,Enfield,Edmonton,EN1 2RG,51.63743,-0.07199
Raglan Infant School,London,London,Enfield,Edmonton,EN1 2NS,51.63661,-0.07278
Suffolks Primary School,London,London,Enfield,Enfield North,EN1 3PU,51.65724,-0.05513
Tottenhall Infant School,London,London,Enfield,"Enfield, Southgate",N13 6HX,51.61104,-0.1077
Southbury Primary School,London,London,Enfield,Edmonton,EN3 4JG,51.64977,-0.04915
De Bohun Primary School,London,London,Enfield,"Enfield, Southgate",N14 4AD,51.64334,-0.14139
Bush Hill Park Primary School,London,London,Enfield,Enfield North,EN1 1DS,51.64489,-0.0641
Eversley Primary School,London,London,Enfield,"Enfield, Southgate",N21 1PD,51.64336,-0.11289
St Michael at Bowes CofE Junior School,London,London,Enfield,"Enfield, Southgate",N13 6JB,51.61105,-0.10366
St John's CofE Primary School,London,London,Enfield,Enfield North,EN2 9BD,51.67492,-0.09612
Forty Hill CofE Primary School,London,London,Enfield,Enfield North,EN2 9EY,51.67096,-0.06105
St Andrew's CofE Primary School,London,London,Enfield,Enfield North,EN1 3UL,51.6577,-0.07723
St Andrew's Southgate Primary School (CE),London,London,Enfield,"Enfield, Southgate",N14 6JA,51.63418,-0.12808
Freezywater St George's CofE VA Primary School,London,London,Enfield,Enfield North,EN3 6NR,51.67398,-0.03887
St John and St James CofE Primary School,London,London,Enfield,Edmonton,N18 2TL,51.61085,-0.06767
St James CofE Primary School,London,London,Enfield,Enfield North,EN3 7HH,51.65806,-0.04483
St Michael's CofE Primary School,London,London,Enfield,Enfield North,EN2 0NB,51.66406,-0.08817
St Paul's CofE Primary School,London,London,Enfield,"Enfield, Southgate",N21 2RA,51.63459,-0.09963
St Mary's Catholic Primary School,London,London,Enfield,Edmonton,EN3 7DE,51.64825,-0.04016
St Edmunds Catholic Primary School,London,London,Enfield,Edmonton,N9 7HJ,51.62928,-0.05568
St George's Catholic Primary School,London,London,Enfield,Enfield North,EN2 0QA,51.65988,-0.08117
St Monica's RC Primary School,London,London,Enfield,"Enfield, Southgate",N14 7HE,51.62305,-0.12041
Our Lady of Lourdes Catholic Primary School,London,London,Enfield,"Enfield, Southgate",N11 1RD,51.61548,-0.13772
Latymer All Saints CofE Primary School,London,London,Enfield,Edmonton,N9 9RS,51.62512,-0.07023
Winchmore School,London,London,Enfield,"Enfield, Southgate",N21 3HS,51.6292,-0.09141
Enfield County School for Girls,London,London,Enfield,Enfield North,EN2 6QG,51.65422,-0.08369
Chace Community School,London,London,Enfield,Enfield North,EN1 3HQ,51.66067,-0.0753
Bishop Stopford's School,London,London,Enfield,Enfield North,EN1 3PU,51.65724,-0.05513
St Anne's Catholic High School for Girls,London,London,Enfield,"Enfield, Southgate",N13 5TY,51.6163,-0.10799
St Matthew's CofE Primary School,London,London,Enfield,Edmonton,EN3 4LA,51.64374,-0.04467
The Latymer School,London,London,Enfield,Edmonton,N9 9TN,51.62602,-0.07414
Broomfield School,London,London,Enfield,"Enfield, Southgate",N14 7HY,51.61505,-0.12428
St Ignatius College,London,London,Enfield,Enfield North,EN1 4NP,51.6729,-0.05587
Durants School,London,London,Enfield,Enfield North,EN3 5BY,51.66369,-0.04627
West Lea School,London,London,Enfield,Edmonton,N9 9TU,51.62344,-0.07727
Oaktree School,London,London,Enfield,"Enfield, Southgate",N14 4HN,51.64308,-0.14591
Waverley School,London,London,Enfield,Edmonton,EN3 7DL,51.65081,-0.04483
Pembury House Nursery School,London,London,Haringey,Tottenham,N17 9XE,51.59847,-0.06644
Rowland Hill Nursery School,London,London,Haringey,Tottenham,N17 7LT,51.60626,-0.0897
Woodlands Park Nursery School and Childrens Centre,London,London,Haringey,Tottenham,N15 3SD,51.58206,-0.0961
Belmont Junior School,London,London,Haringey,Tottenham,N22 6RA,51.59276,-0.09365
Belmont Infant School,London,London,Haringey,Tottenham,N22 6RA,51.59276,-0.09365
Bounds Green Junior School,London,London,Haringey,Hornsey and Wood Green,N11 2QG,51.60617,-0.12401
Bounds Green Infant School,London,London,Haringey,Hornsey and Wood Green,N11 2QG,51.60617,-0.12401
Campsbourne Junior School,London,London,Haringey,Hornsey and Wood Green,N8 7AF,51.59047,-0.12211
Campsbourne Infant School,London,London,Haringey,Hornsey and Wood Green,N8 7AF,51.59047,-0.12211
The Devonshire Hill Nursery &  Primary School,London,London,Haringey,Tottenham,N17 8LB,51.60621,-0.08165
Earlsmead Primary School,London,London,Haringey,Tottenham,N15 4PW,51.58393,-0.06874
Highgate Primary School,London,London,Haringey,Hornsey and Wood Green,N6 4ED,51.57985,-0.15504
Lancasterian Primary School,London,London,Haringey,Tottenham,N17 8NN,51.60157,-0.07181
Coldfall Primary School,London,London,Haringey,Hornsey and Wood Green,N10 1HS,51.5971,-0.15303
